stop_id,stop_code,stop_lat,stop_lon,stop_name,stop_url
23NOV_01,704A,48.5331765019212,7.706437781453133,23 Novembre,http://applis.cts-strasbourg.fr/CTS_FicheHorairev3/ResultatsFiches.aspx?arret=704A
23NOV_02,704B,48.53314630783885,7.706489413976669,23 Novembre,http://applis.cts-strasbourg.fr/CTS_FicheHorairev3/ResultatsFiches.aspx?arret=704B
23NOV_03,704C,48.5327120438977,7.704171985387802,23 Novembre,http://applis.cts-strasbourg.fr/CTS_FicheHorairev3/ResultatsFiches.aspx?arret=704C
23NOV_04,704D,48.53260281127715,7.704330235719681,23 Novembre,http://applis.cts-strasbourg.fr/CTS_FicheHorairev3/ResultatsFiches.aspx?arret=704D
ABATT_01,10A,48.55709299353364,7.650668621063232,Abattoirs,http://applis.cts-strasbourg.fr/CTS_FicheHorairev3/ResultatsFiches.aspx?arret=10A
ABATT_02,10B,48.55692300991623,7.6537008583545685,Abattoirs,http://applis.cts-strasbourg.fr/CTS_FicheHorairev3/ResultatsFiches.aspx?arret=10B
ABBAT_01,11A,48.49155152767943,7.71593414247036,Abbatiale,http://applis.cts-strasbourg.fr/CTS_FicheHorairev3/ResultatsFiches.aspx?arret=11A
ABBAT_02,11B,48.49165684928344,7.716064900159836,Abbatiale,http://applis.cts-strasbourg.fr/CTS_FicheHorairev3/ResultatsFiches.aspx?arret=11B
ABEPE_01,12A,48.545451568625175,7.760698199272156,Abbé de l'Epée,http://applis.cts-strasbourg.fr/CTS_FicheHorairev3/ResultatsFiches.aspx?arret=12A
ABEPE_02,12B,48.54554390448977,7.7612051367759705,Abbé de l'Epée,http://applis.cts-strasbourg.fr/CTS_FicheHorairev3/ResultatsFiches.aspx?arret=12B
ABLEM_01,13A,48.578203357535,7.724582254886627,Abbé Lemire,http://applis.cts-strasbourg.fr/CTS_FicheHorairev3/ResultatsFiches.aspx?arret=13A
ABLEM_02,13B,48.5781394739858,7.724717706441879,Abbé Lemire,http://applis.cts-strasbourg.fr/CTS_FicheHorairev3/ResultatsFiches.aspx?arret=13B
ACACI_01,14A,48.51590832059799,7.711008936166763,Acacias,http://applis.cts-strasbourg.fr/CTS_FicheHorairev3/ResultatsFiches.aspx?arret=14A
ACACI_02,14B,48.515912318235,7.711258381605148,Acacias,http://applis.cts-strasbourg.fr/CTS_FicheHorairev3/ResultatsFiches.aspx?arret=14B
AEROP_02,16A,48.5418201495947,7.651548385620117,Aéroparc,http://applis.cts-strasbourg.fr/CTS_FicheHorairev3/ResultatsFiches.aspx?arret=16A
AEROP_03,16B,48.541947120474724,7.652056664228439,Aéroparc,http://applis.cts-strasbourg.fr/CTS_FicheHorairev3/ResultatsFiches.aspx?arret=16B
ALAIG_01,17A,48.55710231376767,7.64597475528717,A l'Aigle,http://applis.cts-strasbourg.fr/CTS_FicheHorairev3/ResultatsFiches.aspx?arret=17A
ALAIG_02,17B,48.55706059461145,7.645882219076157,A l'Aigle,http://applis.cts-strasbourg.fr/CTS_FicheHorairev3/ResultatsFiches.aspx?arret=17B
ALBAT_01,18A,48.5561977992419,7.692704200744629,Albatros,http://applis.cts-strasbourg.fr/CTS_FicheHorairev3/ResultatsFiches.aspx?arret=18A
ALBAT_02,18B,48.55640284762256,7.6927779614925385,Albatros,http://applis.cts-strasbourg.fr/CTS_FicheHorairev3/ResultatsFiches.aspx?arret=18B
ALEUR_01,19A,48.60452892695833,7.705551981925964,Allée de l'Euro,http://applis.cts-strasbourg.fr/CTS_FicheHorairev3/ResultatsFiches.aspx?arret=19A
ALEUR_02,19B,48.60461317372442,7.70577996969223,Allée de l'Euro,http://applis.cts-strasbourg.fr/CTS_FicheHorairev3/ResultatsFiches.aspx?arret=19B
ALOUE_01,20A,48.64283871634351,7.753811627626419,Alouettes,http://applis.cts-strasbourg.fr/CTS_FicheHorairev3/ResultatsFiches.aspx?arret=20A
ALOUE_02,20B,48.643507744533274,7.753633260726929,Alouettes,http://applis.cts-strasbourg.fr/CTS_FicheHorairev3/ResultatsFiches.aspx?arret=20B
ALOUT_01,681D,48.55129148041762,7.692661285400391,Alouettes,http://applis.cts-strasbourg.fr/CTS_FicheHorairev3/ResultatsFiches.aspx?arret=681D
ALOUT_02,681E,48.55135894885646,7.6926827430725,Alouettes,http://applis.cts-strasbourg.fr/CTS_FicheHorairev3/ResultatsFiches.aspx?arret=681E
ALOUT_03,681A,48.5512031610381,7.692530103075796,Lingolsheim Alouettes,http://applis.cts-strasbourg.fr/CTS_FicheHorairev3/ResultatsFiches.aspx?arret=681A
ALOUT_04,681B,48.5512240118888,7.69242525100708,Lingolsheim Alouettes ,http://applis.cts-strasbourg.fr/CTS_FicheHorairev3/ResultatsFiches.aspx?arret=681B
ALOUT_05,681C,48.55124133404829,7.692303456414038,Lingolsheim Alouettes,http://applis.cts-strasbourg.fr/CTS_FicheHorairev3/ResultatsFiches.aspx?arret=681C
ALSAC_01,22A,48.531924320453996,7.726890295743942,Alsace,http://applis.cts-strasbourg.fr/CTS_FicheHorairev3/ResultatsFiches.aspx?arret=22A
ALSAC_02,22B,48.53223337237525,7.72726446390152,Alsace,http://applis.cts-strasbourg.fr/CTS_FicheHorairev3/ResultatsFiches.aspx?arret=22B
ALSCH_01,23A,48.491422208448704,7.687577158212662,Albert Schweitzer,http://applis.cts-strasbourg.fr/CTS_FicheHorairev3/ResultatsFiches.aspx?arret=23A
ALSCH_02,23B,48.49128000135378,7.6890818774700165,Albert Schweitzer,http://applis.cts-strasbourg.fr/CTS_FicheHorairev3/ResultatsFiches.aspx?arret=23B
ALWIN_01,24A,48.58344951845561,7.740324139595032,Alt Winmärik,http://applis.cts-strasbourg.fr/CTS_FicheHorairev3/ResultatsFiches.aspx?arret=24A
ALWIN_02,24B,48.58330845681788,7.740049213171005,Alt Winmärik,http://applis.cts-strasbourg.fr/CTS_FicheHorairev3/ResultatsFiches.aspx?arret=24B
ANDOU_01,26A,48.57968330382622,7.749871462583542,Ancienne Douane,http://applis.cts-strasbourg.fr/CTS_FicheHorairev3/ResultatsFiches.aspx?arret=26A
ANEMO_01,27A,48.6431816497825,7.722844183444977,Anémones,http://applis.cts-strasbourg.fr/CTS_FicheHorairev3/ResultatsFiches.aspx?arret=27A
ANEMO_02,27B,48.64324013432229,7.723721265792847,Anémones,http://applis.cts-strasbourg.fr/CTS_FicheHorairev3/ResultatsFiches.aspx?arret=27B
ANFOR_01,28A,48.531485605579164,7.631350010633469,Ancienne Forge,http://applis.cts-strasbourg.fr/CTS_FicheHorairev3/ResultatsFiches.aspx?arret=28A
ANFOR_02,28B,48.53166944000762,7.632547616958618,Ancienne Forge,http://applis.cts-strasbourg.fr/CTS_FicheHorairev3/ResultatsFiches.aspx?arret=28B
ANKAR_03,29A,48.5753906303567,7.771443128585815,Ankara,http://applis.cts-strasbourg.fr/CTS_FicheHorairev3/ResultatsFiches.aspx?arret=29A
ANKAR_04,29B,48.57653082411485,7.771250009536743,Ankara,http://applis.cts-strasbourg.fr/CTS_FicheHorairev3/ResultatsFiches.aspx?arret=29B
ANSYN_01,30A,48.585328528380465,7.742377370595932,Ancienne Synagogue - Les Halles,http://applis.cts-strasbourg.fr/CTS_FicheHorairev3/ResultatsFiches.aspx?arret=30A
ANSYN_02,30B,48.58530368828942,7.742245942354202,Ancienne Synagogue - Les Halles,http://applis.cts-strasbourg.fr/CTS_FicheHorairev3/ResultatsFiches.aspx?arret=30B
ARANS_01,31A,48.66047328205465,7.721051126718521,Artisans,http://applis.cts-strasbourg.fr/CTS_FicheHorairev3/ResultatsFiches.aspx?arret=31A
ARANS_02,31B,48.659722095956006,7.721216082572937,Artisans,http://applis.cts-strasbourg.fr/CTS_FicheHorairev3/ResultatsFiches.aspx?arret=31B
ARBRI_03,32C,48.56826999397024,7.776241636315149,Aristide Briand ,http://applis.cts-strasbourg.fr/CTS_FicheHorairev3/ResultatsFiches.aspx?arret=32C
ARBRI_04,32B,48.56859274688165,7.776425934987628,Aristide Briand ,http://applis.cts-strasbourg.fr/CTS_FicheHorairev3/ResultatsFiches.aspx?arret=32B
ARBRI_06,32E,48.568503668306406,7.776579558849335,Aristide Briand,http://applis.cts-strasbourg.fr/CTS_FicheHorairev3/ResultatsFiches.aspx?arret=32E
ARBRI_07,32A,48.56823743524861,7.776177227497101,Aristide Briand,http://applis.cts-strasbourg.fr/CTS_FicheHorairev3/ResultatsFiches.aspx?arret=32A
ARBRI_08,32F,48.5685427157037,7.776316702365875,Aristide Briand ,http://applis.cts-strasbourg.fr/CTS_FicheHorairev3/ResultatsFiches.aspx?arret=32F
AUJEU_01,36A,48.573314019568485,7.718419689583925,Auberge de Jeunesse,http://applis.cts-strasbourg.fr/CTS_FicheHorairev3/ResultatsFiches.aspx?arret=36A
AUJEU_02,36B,48.57334882069177,7.719158470534921,Auberge de Jeunesse,http://applis.cts-strasbourg.fr/CTS_FicheHorairev3/ResultatsFiches.aspx?arret=36B
AVENI_01,37A,48.56503099170008,7.698712348937988,Avenir,http://applis.cts-strasbourg.fr/CTS_FicheHorairev3/ResultatsFiches.aspx?arret=37A
AVENI_02,37B,48.564928041348125,7.698466926813126,Avenir,http://applis.cts-strasbourg.fr/CTS_FicheHorairev3/ResultatsFiches.aspx?arret=37B
BAGGE_01,38A,48.54516390581323,7.737916186451912,Baggersee,http://applis.cts-strasbourg.fr/CTS_FicheHorairev3/ResultatsFiches.aspx?arret=38A
BAGGE_02,38B,48.54486203567221,7.738013416528702,Baggersee,http://applis.cts-strasbourg.fr/CTS_FicheHorairev3/ResultatsFiches.aspx?arret=38B
BAGGE_03,38C,48.5449250734092,7.73784913122654,Baggersee,http://applis.cts-strasbourg.fr/CTS_FicheHorairev3/ResultatsFiches.aspx?arret=38C
BAGGE_04,38D,48.545048485089566,7.738000005483627,Baggersee,http://applis.cts-strasbourg.fr/CTS_FicheHorairev3/ResultatsFiches.aspx?arret=38D
BAGGE_06,38E,48.54482075035118,7.737403213977814,Baggersee,http://applis.cts-strasbourg.fr/CTS_FicheHorairev3/ResultatsFiches.aspx?arret=38E
BAGGE_07,38F,48.5449250734092,7.7369579672813416,Baggersee,http://applis.cts-strasbourg.fr/CTS_FicheHorairev3/ResultatsFiches.aspx?arret=38F
BAILL_01,39A,48.60699862908887,7.779918909072876,Baillis,http://applis.cts-strasbourg.fr/CTS_FicheHorairev3/ResultatsFiches.aspx?arret=39A
BAILL_02,39B,48.60659426243044,7.780040949583054,Baillis,http://applis.cts-strasbourg.fr/CTS_FicheHorairev3/ResultatsFiches.aspx?arret=39B
BALEE_01,40A,48.53716906666548,7.70989716053009,Bâle,http://applis.cts-strasbourg.fr/CTS_FicheHorairev3/ResultatsFiches.aspx?arret=40A
BALEE_02,40B,48.536541253170036,7.709881067276001,Bâle,http://applis.cts-strasbourg.fr/CTS_FicheHorairev3/ResultatsFiches.aspx?arret=40B
BALLA_01,41A,48.506777338761935,7.717167288064957,Ballastière,http://applis.cts-strasbourg.fr/CTS_FicheHorairev3/ResultatsFiches.aspx?arret=41A
BALLA_02,41B,48.506906174566055,7.717231661081314,Ballastière,http://applis.cts-strasbourg.fr/CTS_FicheHorairev3/ResultatsFiches.aspx?arret=41B
BANLI_01,42A,48.60098511465732,7.697851359844208,Banlieue,http://applis.cts-strasbourg.fr/CTS_FicheHorairev3/ResultatsFiches.aspx?arret=42A
BANLI_02,42B,48.60078734203114,7.698122262954712,Banlieue,http://applis.cts-strasbourg.fr/CTS_FicheHorairev3/ResultatsFiches.aspx?arret=42B
BARRR_01,43A,48.60186576991,7.745232582092285,Barr,http://applis.cts-strasbourg.fr/CTS_FicheHorairev3/ResultatsFiches.aspx?arret=43A
BARRR_02,43B,48.60172919396841,7.745186984539032,Barr,http://applis.cts-strasbourg.fr/CTS_FicheHorairev3/ResultatsFiches.aspx?arret=43B
BARTI_01,44A,48.55469674877339,7.739554345607758,Bartischgut,http://applis.cts-strasbourg.fr/CTS_FicheHorairev3/ResultatsFiches.aspx?arret=44A
BARTI_02,44B,48.55478374167799,7.739586532115936,Bartischgut,http://applis.cts-strasbourg.fr/CTS_FicheHorairev3/ResultatsFiches.aspx?arret=44B
BATEL_01,45A,48.58096890545429,7.754272967576981,Bateliers,http://applis.cts-strasbourg.fr/CTS_FicheHorairev3/ResultatsFiches.aspx?arret=45A
BATEL_02,45B,48.58076839279078,7.753967195749283,Bateliers,http://applis.cts-strasbourg.fr/CTS_FicheHorairev3/ResultatsFiches.aspx?arret=45B
BELZW_01,46A,48.61929124867159,7.793010771274567,Belzwoerth,http://applis.cts-strasbourg.fr/CTS_FicheHorairev3/ResultatsFiches.aspx?arret=46A
BELZW_02,46B,48.619287702473194,7.792329490184784,Belzwoerth,http://applis.cts-strasbourg.fr/CTS_FicheHorairev3/ResultatsFiches.aspx?arret=46B
BERGE_01,47A,48.5543754063392,7.762508690357208,Bergerac,http://applis.cts-strasbourg.fr/CTS_FicheHorairev3/ResultatsFiches.aspx?arret=47A
BERGE_02,47B,48.55430439116126,7.763004899024963,Bergerac,http://applis.cts-strasbourg.fr/CTS_FicheHorairev3/ResultatsFiches.aspx?arret=47B
BERLI_01,48A,48.63704305441075,7.709740251302719,Berlioz,http://applis.cts-strasbourg.fr/CTS_FicheHorairev3/ResultatsFiches.aspx?arret=48A
BERLI_02,48B,48.63712930973205,7.710319149153179,Berlioz,http://applis.cts-strasbourg.fr/CTS_FicheHorairev3/ResultatsFiches.aspx?arret=48B
BERLI_04,48C,48.63706222475139,7.709809337434422,Berlioz,http://applis.cts-strasbourg.fr/CTS_FicheHorairev3/ResultatsFiches.aspx?arret=48C
BERST_01,49A,48.60019579327615,7.711793482303619,Berstett,http://applis.cts-strasbourg.fr/CTS_FicheHorairev3/ResultatsFiches.aspx?arret=49A
BERST_02,49B,48.60014258015499,7.711702287197113,Berstett,http://applis.cts-strasbourg.fr/CTS_FicheHorairev3/ResultatsFiches.aspx?arret=49B
BETHL_01,50A,48.61142428144946,7.686580717563629,Bethel,http://applis.cts-strasbourg.fr/CTS_FicheHorairev3/ResultatsFiches.aspx?arret=50A
BETHL_02,50B,48.61188269692109,7.686979025602341,Bethel,http://applis.cts-strasbourg.fr/CTS_FicheHorairev3/ResultatsFiches.aspx?arret=50B
BETHS_01,51A,48.59231609344501,7.761379480361938,Bethesda,http://applis.cts-strasbourg.fr/CTS_FicheHorairev3/ResultatsFiches.aspx?arret=51A
BETHS_02,51B,48.592340043066464,7.7610549330711365,Bethesda,http://applis.cts-strasbourg.fr/CTS_FicheHorairev3/ResultatsFiches.aspx?arret=51B
BIGAR_01,52A,48.61451990387001,7.74461655582661,Bischheim Gare,http://applis.cts-strasbourg.fr/CTS_FicheHorairev3/ResultatsFiches.aspx?arret=52A
BIGAR_02,52B,48.614393711313085,7.745140045881271,Bischheim Gare,http://applis.cts-strasbourg.fr/CTS_FicheHorairev3/ResultatsFiches.aspx?arret=52B
BITCH_03,54B,48.60977058176722,7.753252387046814,Bitche,http://applis.cts-strasbourg.fr/CTS_FicheHorairev3/ResultatsFiches.aspx?arret=54B
BITCH_04,54A,48.609814030869885,7.753012329339981,Bitche,http://applis.cts-strasbourg.fr/CTS_FicheHorairev3/ResultatsFiches.aspx?arret=54A
BLAES_01,55A,48.56609687052699,7.703392803668976,Blaesheim,http://applis.cts-strasbourg.fr/CTS_FicheHorairev3/ResultatsFiches.aspx?arret=55A
BLAES_02,55B,48.56609509556011,7.703501433134079,Blaesheim,http://applis.cts-strasbourg.fr/CTS_FicheHorairev3/ResultatsFiches.aspx?arret=55B
BLCEN_01,56A,48.50390110522951,7.607892751693726,Blaesheim  Centre,http://applis.cts-strasbourg.fr/CTS_FicheHorairev3/ResultatsFiches.aspx?arret=56A
BOECK_01,57A,48.59806545085939,7.778030633926392,Robertsau Boecklin,http://applis.cts-strasbourg.fr/CTS_FicheHorairev3/ResultatsFiches.aspx?arret=57A
BOISF_01,59A,48.603368080893965,7.79056191444397,Bois Fleuri,http://applis.cts-strasbourg.fr/CTS_FicheHorairev3/ResultatsFiches.aspx?arret=59A
BOISF_02,59B,48.60342040378886,7.790588736534119,Bois Fleuri,http://applis.cts-strasbourg.fr/CTS_FicheHorairev3/ResultatsFiches.aspx?arret=59B
BORIE_01,58A,48.55000068532901,7.7032023668289185,Borie,http://applis.cts-strasbourg.fr/CTS_FicheHorairev3/ResultatsFiches.aspx?arret=58A
BORIE_02,58B,48.54981691746346,7.702749073505402,Borie,http://applis.cts-strasbourg.fr/CTS_FicheHorairev3/ResultatsFiches.aspx?arret=58B
BOROU_01,60A,48.58708415960296,7.668035924434662,Boeuf Rouge,http://applis.cts-strasbourg.fr/CTS_FicheHorairev3/ResultatsFiches.aspx?arret=60A
BOROU_02,60B,48.587029158438554,7.668115049600601,Boeuf Rouge,http://applis.cts-strasbourg.fr/CTS_FicheHorairev3/ResultatsFiches.aspx?arret=60B
BOSCO_01,61A,48.58182063179683,7.702861726284027,Bosco,http://applis.cts-strasbourg.fr/CTS_FicheHorairev3/ResultatsFiches.aspx?arret=61A
BOSCO_02,61B,48.58181353413663,7.7030521631240845,Bosco,http://applis.cts-strasbourg.fr/CTS_FicheHorairev3/ResultatsFiches.aspx?arret=61B
BOSCO_03,61B,48.5823228113552,7.70350459877659,Bosco,http://applis.cts-strasbourg.fr/CTS_FicheHorairev3/ResultatsFiches.aspx?arret=61B
BOUGU_01,62A,48.540395922935765,7.769023776054382,Bouguer,http://applis.cts-strasbourg.fr/CTS_FicheHorairev3/ResultatsFiches.aspx?arret=62A
BOUGU_02,62B,48.540802595233934,7.769753336906433,Bouguer,http://applis.cts-strasbourg.fr/CTS_FicheHorairev3/ResultatsFiches.aspx?arret=62B
BOUNE_01,702A,48.65197660827216,7.695394456386566,Bourgogne,http://applis.cts-strasbourg.fr/CTS_FicheHorairev3/ResultatsFiches.aspx?arret=702A
BOUNE_02,702B,48.65127225293073,7.696777135133743,Bourgogne,http://applis.cts-strasbourg.fr/CTS_FicheHorairev3/ResultatsFiches.aspx?arret=702B
BOURG_01,63A,48.54783626588796,7.747898697853088,Bourgogne,http://applis.cts-strasbourg.fr/CTS_FicheHorairev3/ResultatsFiches.aspx?arret=63A
BOURG_02,63B,48.54787355363492,7.748110592365265,Bourgogne,http://applis.cts-strasbourg.fr/CTS_FicheHorairev3/ResultatsFiches.aspx?arret=63B
BOUVR_01,64A,48.634969215449765,7.731314599514008,Bouvreuil,http://applis.cts-strasbourg.fr/CTS_FicheHorairev3/ResultatsFiches.aspx?arret=64A
BOUVR_02,64B,48.6348876781591,7.731546610593796,Bouvreuil,http://applis.cts-strasbourg.fr/CTS_FicheHorairev3/ResultatsFiches.aspx?arret=64B
BREME_01,65A,48.598696048670924,7.790977656841278,Brême,http://applis.cts-strasbourg.fr/CTS_FicheHorairev3/ResultatsFiches.aspx?arret=65A
BREME_02,65B,48.59881134699761,7.791033983230591,Brême,http://applis.cts-strasbourg.fr/CTS_FicheHorairev3/ResultatsFiches.aspx?arret=65B
BROCH_01,66A,48.52448696774219,7.707974016666412,Brochet,http://applis.cts-strasbourg.fr/CTS_FicheHorairev3/ResultatsFiches.aspx?arret=66A
BROCH_02,66B,48.52424270847325,7.707893550395966,Brochet,http://applis.cts-strasbourg.fr/CTS_FicheHorairev3/ResultatsFiches.aspx?arret=66B
BROGL_01,67A,48.584826401312085,7.749513387680054,Broglie,http://applis.cts-strasbourg.fr/CTS_FicheHorairev3/ResultatsFiches.aspx?arret=67A
BROGL_02,67B,48.584663164582835,7.749073505401611,Broglie,http://applis.cts-strasbourg.fr/CTS_FicheHorairev3/ResultatsFiches.aspx?arret=67B
BRUCH_01,68A,48.570085063779395,7.7110545337200165,Bruche,http://applis.cts-strasbourg.fr/CTS_FicheHorairev3/ResultatsFiches.aspx?arret=68A
BRUCH_02,68B,48.5702341490171,7.711271792650223,Bruche,http://applis.cts-strasbourg.fr/CTS_FicheHorairev3/ResultatsFiches.aspx?arret=68B
BRUNI_01,69C,48.58584750606166,7.761430442333221,Brant Université,http://applis.cts-strasbourg.fr/CTS_FicheHorairev3/ResultatsFiches.aspx?arret=69C
BRUNI_02,69A,48.5855911228818,7.761671841144562,Brant Université,http://applis.cts-strasbourg.fr/CTS_FicheHorairev3/ResultatsFiches.aspx?arret=69A
BRUNI_03,69B,48.58563459278587,7.7613164484500885,Brant Université,http://applis.cts-strasbourg.fr/CTS_FicheHorairev3/ResultatsFiches.aspx?arret=69B
BRUXE_01,70A,48.5841858715565,7.775149941444397,Bruxelles,http://applis.cts-strasbourg.fr/CTS_FicheHorairev3/ResultatsFiches.aspx?arret=70A
BRUXE_02,70B,48.584153933572274,7.775265276432037,Bruxelles,http://applis.cts-strasbourg.fr/CTS_FicheHorairev3/ResultatsFiches.aspx?arret=70B
BUGAT_01,71A,48.589410121792916,7.687845379114151,Bugatti,http://applis.cts-strasbourg.fr/CTS_FicheHorairev3/ResultatsFiches.aspx?arret=71A
BUGAT_02,71B,48.589503264502405,7.688592374324799,Bugatti,http://applis.cts-strasbourg.fr/CTS_FicheHorairev3/ResultatsFiches.aspx?arret=71B
BUSSI_01,72A,48.621292151381475,7.7978722751140594,Bussière,http://applis.cts-strasbourg.fr/CTS_FicheHorairev3/ResultatsFiches.aspx?arret=72A
BUSSI_02,72B,48.62113701111906,7.7973975241184235,Bussière,http://applis.cts-strasbourg.fr/CTS_FicheHorairev3/ResultatsFiches.aspx?arret=72B
CACRO_01,73A,48.60964821470575,7.7120912075042725,Campus Cronenbourg-Schiltigheim,http://applis.cts-strasbourg.fr/CTS_FicheHorairev3/ResultatsFiches.aspx?arret=73A
CACRO_02,73B,48.60979008953222,7.711922228336334,Campus Cronenbourg-Schiltigheim,http://applis.cts-strasbourg.fr/CTS_FicheHorairev3/ResultatsFiches.aspx?arret=73B
CAHAU_01,74A,48.59613990587312,7.788214981555939,Carpe Haute,http://applis.cts-strasbourg.fr/CTS_FicheHorairev3/ResultatsFiches.aspx?arret=74A
CAHAU_02,74B,48.59608136673692,7.788290083408356,Carpe Haute,http://applis.cts-strasbourg.fr/CTS_FicheHorairev3/ResultatsFiches.aspx?arret=74B
CAILL_03,75B,48.52935414318684,7.732779085636139,Campus d'Illkirch,http://applis.cts-strasbourg.fr/CTS_FicheHorairev3/ResultatsFiches.aspx?arret=75B
CAILL_04,75C,48.529569957836266,7.732903808355331,Campus d'Illkirch,http://applis.cts-strasbourg.fr/CTS_FicheHorairev3/ResultatsFiches.aspx?arret=75C
CAILL_06,75A,48.529197832413765,7.732881009578705,Campus d'Illkirch,http://applis.cts-strasbourg.fr/CTS_FicheHorairev3/ResultatsFiches.aspx?arret=75A
CAILL_07,75D,48.529605482793265,7.732779085636139,Campus  d'Illkirch,http://applis.cts-strasbourg.fr/CTS_FicheHorairev3/ResultatsFiches.aspx?arret=75D
CAILL_08,75E,48.52952111097968,7.733091562986374,Campus d'Illkirch,http://applis.cts-strasbourg.fr/CTS_FicheHorairev3/ResultatsFiches.aspx?arret=75E
CANAL_01,76A,48.678464740760404,7.697227746248245,Canal,http://applis.cts-strasbourg.fr/CTS_FicheHorairev3/ResultatsFiches.aspx?arret=76A
CANAL_02,76B,48.678461198720925,7.697078883647919,Canal,http://applis.cts-strasbourg.fr/CTS_FicheHorairev3/ResultatsFiches.aspx?arret=76B
CANAR_01,77A,48.55016403398257,7.745970189571381,Canardière,http://applis.cts-strasbourg.fr/CTS_FicheHorairev3/ResultatsFiches.aspx?arret=77A
CANAR_02,77B,48.54999890979726,7.746470421552658,Canardière,http://applis.cts-strasbourg.fr/CTS_FicheHorairev3/ResultatsFiches.aspx?arret=77B
CAPUC_01,79A,48.57803566304614,7.704870700836182,Capucins,http://applis.cts-strasbourg.fr/CTS_FicheHorairev3/ResultatsFiches.aspx?arret=79A
CAPUC_02,79B,48.57805873216225,7.705836296081543,Capucins,http://applis.cts-strasbourg.fr/CTS_FicheHorairev3/ResultatsFiches.aspx?arret=79B
CATHE_01,80A,48.59721222441197,7.704862654209137,Catherine,http://applis.cts-strasbourg.fr/CTS_FicheHorairev3/ResultatsFiches.aspx?arret=80A
CATHE_02,80B,48.59668449398047,7.70597442984581,Catherine,http://applis.cts-strasbourg.fr/CTS_FicheHorairev3/ResultatsFiches.aspx?arret=80B
CERIS_01,81A,48.534764330057776,7.642883509397507,Cerisiers,http://applis.cts-strasbourg.fr/CTS_FicheHorairev3/ResultatsFiches.aspx?arret=81A
CERIS_02,81B,48.534535216991515,7.642644792795181,Cerisiers,http://applis.cts-strasbourg.fr/CTS_FicheHorairev3/ResultatsFiches.aspx?arret=81B
CESPO_01,82A,48.491251559886926,7.683792561292648,Centre Sportif,http://applis.cts-strasbourg.fr/CTS_FicheHorairev3/ResultatsFiches.aspx?arret=82A
CESPO_02,82B,48.49129599967186,7.684157341718674,Centre Sportif,http://applis.cts-strasbourg.fr/CTS_FicheHorairev3/ResultatsFiches.aspx?arret=82B
CETRA_01,83A,48.53752692575405,7.72818848490715,Centre de Traumatologie,http://applis.cts-strasbourg.fr/CTS_FicheHorairev3/ResultatsFiches.aspx?arret=83A
CETRA_02,83B,48.53751094202738,7.727968543767929,Centre de Traumatologie,http://applis.cts-strasbourg.fr/CTS_FicheHorairev3/ResultatsFiches.aspx?arret=83B
CHARM_01,85A,48.57986518871997,7.717294692993164,Charmille,http://applis.cts-strasbourg.fr/CTS_FicheHorairev3/ResultatsFiches.aspx?arret=85A
CHARM_02,85B,48.57973920022909,7.716862857341766,Charmille,http://applis.cts-strasbourg.fr/CTS_FicheHorairev3/ResultatsFiches.aspx?arret=85B
CHATE_01,86A,48.52390163174135,7.7213649451732635,Chateaubriand,http://applis.cts-strasbourg.fr/CTS_FicheHorairev3/ResultatsFiches.aspx?arret=86A
CHATE_02,86B,48.523691122299574,7.721453458070755,Chateaubriand,http://applis.cts-strasbourg.fr/CTS_FicheHorairev3/ResultatsFiches.aspx?arret=86B
CHBLA_01,87A,48.613595732988436,7.751868367195129,Cheval Blanc,http://applis.cts-strasbourg.fr/CTS_FicheHorairev3/ResultatsFiches.aspx?arret=87A
CHBLA_02,87B,48.61440612420964,7.7523887157440186,Cheval Blanc,http://applis.cts-strasbourg.fr/CTS_FicheHorairev3/ResultatsFiches.aspx?arret=87B
CHBLA_03,87C,48.614039055836976,7.75260865688324,Cheval Blanc,http://applis.cts-strasbourg.fr/CTS_FicheHorairev3/ResultatsFiches.aspx?arret=87C
CHBLA_04,87D,48.614049695537524,7.751664519309998,Cheval Blanc,http://applis.cts-strasbourg.fr/CTS_FicheHorairev3/ResultatsFiches.aspx?arret=87D
CHEAU_01,88A,48.67312306222499,7.703966796398163,Château d'Eau,http://applis.cts-strasbourg.fr/CTS_FicheHorairev3/ResultatsFiches.aspx?arret=88A
CHEAU_02,88B,48.672508449484326,7.703956067562103,Château d'Eau,http://applis.cts-strasbourg.fr/CTS_FicheHorairev3/ResultatsFiches.aspx?arret=88B
CHERB_01,90A,48.53353705339586,7.782756686210632,Cherbourg,http://applis.cts-strasbourg.fr/CTS_FicheHorairev3/ResultatsFiches.aspx?arret=90A
CHERB_02,90B,48.533494426754366,7.78293639421463,Cherbourg,http://applis.cts-strasbourg.fr/CTS_FicheHorairev3/ResultatsFiches.aspx?arret=90B
CHMAN_01,91A,48.601540292869174,7.710467129945755,Champ de Manoeuvre,http://applis.cts-strasbourg.fr/CTS_FicheHorairev3/ResultatsFiches.aspx?arret=91A
CHMAN_02,91B,48.60164139495383,7.71052211523056,Champ de Manoeuvre,http://applis.cts-strasbourg.fr/CTS_FicheHorairev3/ResultatsFiches.aspx?arret=91B
CHMET_01,92A,48.61650297328677,7.720550894737244,Chambre de Métiers,http://applis.cts-strasbourg.fr/CTS_FicheHorairev3/ResultatsFiches.aspx?arret=92A
CHMET_02,92B,48.61572276054816,7.721049785614014,Chambre de Métiers,http://applis.cts-strasbourg.fr/CTS_FicheHorairev3/ResultatsFiches.aspx?arret=92B
CHMET_03,92C,48.615072869596354,7.718638479709625,Chambre des Métiers,http://applis.cts-strasbourg.fr/CTS_FicheHorairev3/ResultatsFiches.aspx?arret=92C
CHMET_04,92D,48.615501107002636,7.719487398862839,Chambre des Métiers,http://applis.cts-strasbourg.fr/CTS_FicheHorairev3/ResultatsFiches.aspx?arret=92D
CHOPI_01,93A,48.525194868860126,7.683040201663971,Chopin,http://applis.cts-strasbourg.fr/CTS_FicheHorairev3/ResultatsFiches.aspx?arret=93A
CHOPI_02,93B,48.525493303505755,7.683836817741394,Chopin,http://applis.cts-strasbourg.fr/CTS_FicheHorairev3/ResultatsFiches.aspx?arret=93B
CHPEG_01,94A,48.58916972410172,7.693052887916565,Charles Peguy,http://applis.cts-strasbourg.fr/CTS_FicheHorairev3/ResultatsFiches.aspx?arret=94A
CHPEG_02,94B,48.58907924201765,7.693173587322235,Charles Peguy,http://applis.cts-strasbourg.fr/CTS_FicheHorairev3/ResultatsFiches.aspx?arret=94B
CHUUU_01,95A,48.59462318818295,7.703931927680969,C.H.U.,http://applis.cts-strasbourg.fr/CTS_FicheHorairev3/ResultatsFiches.aspx?arret=95A
CHUUU_02,95B,48.59449280155434,7.70390510559082,C.H.U.,http://applis.cts-strasbourg.fr/CTS_FicheHorairev3/ResultatsFiches.aspx?arret=95B
CIADM_01,96A,48.57839412043067,7.760513126850128,Cité Administrative,http://applis.cts-strasbourg.fr/CTS_FicheHorairev3/ResultatsFiches.aspx?arret=96A
CIADM_02,96B,48.57795935743315,7.761832773685455,Cité Administrative,http://applis.cts-strasbourg.fr/CTS_FicheHorairev3/ResultatsFiches.aspx?arret=96B
CICEN_01,97A,48.591010378384766,7.731081247329712,Cimetière Central,http://applis.cts-strasbourg.fr/CTS_FicheHorairev3/ResultatsFiches.aspx?arret=97A
CICEN_02,97B,48.59098243642337,7.7327945083379745,Cimetière Central,http://applis.cts-strasbourg.fr/CTS_FicheHorairev3/ResultatsFiches.aspx?arret=97B
CICER_01,98A,48.58234481692161,7.703505739881166,Cicéron,http://applis.cts-strasbourg.fr/CTS_FicheHorairev3/ResultatsFiches.aspx?arret=98A
CICER_02,98B,48.5823955389647,7.7035000920295715,Cicéron,http://applis.cts-strasbourg.fr/CTS_FicheHorairev3/ResultatsFiches.aspx?arret=98B
CIILL_01,99A,48.61294226801199,7.7736009657382965,Cité de l'Ill,http://applis.cts-strasbourg.fr/CTS_FicheHorairev3/ResultatsFiches.aspx?arret=99A
CIILL_02,99B,48.61289793493925,7.773362249135971,Cité de l'Ill,http://applis.cts-strasbourg.fr/CTS_FicheHorairev3/ResultatsFiches.aspx?arret=99B
CIMEI_01,100A,48.54798186550604,7.756379842758179,Cité Meinau,http://applis.cts-strasbourg.fr/CTS_FicheHorairev3/ResultatsFiches.aspx?arret=100A
CIMEI_02,100B,48.54810526973243,7.75559663772583,Cité Meinau,http://applis.cts-strasbourg.fr/CTS_FicheHorairev3/ResultatsFiches.aspx?arret=100B
CIMET_01,110A,48.55111038047902,7.680289596319199,Cimetière,http://applis.cts-strasbourg.fr/CTS_FicheHorairev3/ResultatsFiches.aspx?arret=110A
CIMET_02,110B,48.55145748812524,7.680290937423706,Cimetière,http://applis.cts-strasbourg.fr/CTS_FicheHorairev3/ResultatsFiches.aspx?arret=110B
CINOR_01,111A,48.60912238765363,7.779778093099594,Cimetière Nord,http://applis.cts-strasbourg.fr/CTS_FicheHorairev3/ResultatsFiches.aspx?arret=111A
CINOR_02,111B,48.60897075691324,7.779582291841507,Cimetière Nord,http://applis.cts-strasbourg.fr/CTS_FicheHorairev3/ResultatsFiches.aspx?arret=111B
CIRUS_01,112A,48.559158049146575,7.6890429854393005,Cité Russi,http://applis.cts-strasbourg.fr/CTS_FicheHorairev3/ResultatsFiches.aspx?arret=112A
CIRUS_02,112B,48.55935953512239,7.6896800100803375,Cité Russi,http://applis.cts-strasbourg.fr/CTS_FicheHorairev3/ResultatsFiches.aspx?arret=112B
CISUD_01,113A,48.545879508424896,7.75684118270874,Cimetière Sud,http://applis.cts-strasbourg.fr/CTS_FicheHorairev3/ResultatsFiches.aspx?arret=113A
CISUD_02,113B,48.54593129386926,7.755920725719875,Cimetière Sud,http://applis.cts-strasbourg.fr/CTS_FicheHorairev3/ResultatsFiches.aspx?arret=113B
CIUNI_01,114A,48.60215251397928,7.775597411053127,Cité Universitaire,http://applis.cts-strasbourg.fr/CTS_FicheHorairev3/ResultatsFiches.aspx?arret=114A
CIUNI_02,114B,48.60183650366789,7.775416821241379,Cité Universitaire,http://applis.cts-strasbourg.fr/CTS_FicheHorairev3/ResultatsFiches.aspx?arret=114B
CLEME_01,115A,48.59215731603799,7.754644453525543,Clémenceau,http://applis.cts-strasbourg.fr/CTS_FicheHorairev3/ResultatsFiches.aspx?arret=115A
CLEME_02,115B,48.59196749211445,7.754703462123871,Clémenceau,http://applis.cts-strasbourg.fr/CTS_FicheHorairev3/ResultatsFiches.aspx?arret=115B
CLORA_01,116A,48.5879490893966,7.765330374240875,Clinique de l'Orangerie,http://applis.cts-strasbourg.fr/CTS_FicheHorairev3/ResultatsFiches.aspx?arret=116A
CLORA_02,116B,48.587663442425026,7.764616906642914,Clinique de l'Orangerie,http://applis.cts-strasbourg.fr/CTS_FicheHorairev3/ResultatsFiches.aspx?arret=116B
CLSTA_01,117A,48.61540801222332,7.785353064537048,Clinique Sainte Anne,http://applis.cts-strasbourg.fr/CTS_FicheHorairev3/ResultatsFiches.aspx?arret=117A
CLSTA_02,117B,48.615342402466176,7.786053121089935,Clinique Sainte Anne,http://applis.cts-strasbourg.fr/CTS_FicheHorairev3/ResultatsFiches.aspx?arret=117B
CMCOO_01,118A,48.600940771086506,7.749650180339813,C.M.C.O.,http://applis.cts-strasbourg.fr/CTS_FicheHorairev3/ResultatsFiches.aspx?arret=118A
CMCOO_02,118B,48.60089021936831,7.749773561954498,C.M.C.O.,http://applis.cts-strasbourg.fr/CTS_FicheHorairev3/ResultatsFiches.aspx?arret=118B
COBOI_01,119A,48.530714737037144,7.7738262712955475,Coucou des Bois,http://applis.cts-strasbourg.fr/CTS_FicheHorairev3/ResultatsFiches.aspx?arret=119A
COCHA_01,120A,48.51318852176994,7.712274938821793,Cor de chasse,http://applis.cts-strasbourg.fr/CTS_FicheHorairev3/ResultatsFiches.aspx?arret=120A
COCHA_02,120B,48.51350657209139,7.712409049272537,Cor de chasse,http://applis.cts-strasbourg.fr/CTS_FicheHorairev3/ResultatsFiches.aspx?arret=120B
COEHO_01,121A,48.61045068894384,7.786045074462891,Coehorn,http://applis.cts-strasbourg.fr/CTS_FicheHorairev3/ResultatsFiches.aspx?arret=121A
COEHO_02,121B,48.610645763627325,7.786291837692261,Coehorn,http://applis.cts-strasbourg.fr/CTS_FicheHorairev3/ResultatsFiches.aspx?arret=121B
COEUR_01,453A,48.59397770888626,7.772223259593943,Conseil de l'Europe,http://applis.cts-strasbourg.fr/CTS_FicheHorairev3/ResultatsFiches.aspx?arret=453A
COEUR_02,453B,48.59395705976626,7.771984934806824,Conseil de l'Europe,http://applis.cts-strasbourg.fr/CTS_FicheHorairev3/ResultatsFiches.aspx?arret=453B
COFON_01,122A,48.51694280970116,7.650672644376755,Collège La Fontaine,http://applis.cts-strasbourg.fr/CTS_FicheHorairev3/ResultatsFiches.aspx?arret=122A
COFON_02,122B,48.516775800438545,7.6502783596515656,Collège La Fontaine,http://applis.cts-strasbourg.fr/CTS_FicheHorairev3/ResultatsFiches.aspx?arret=122B
COGAL_01,123A,48.55054044408971,7.687087655067444,Collège Galilée,http://applis.cts-strasbourg.fr/CTS_FicheHorairev3/ResultatsFiches.aspx?arret=123A
COGAL_02,123B,48.55049428073665,7.687106430530548,Collège Galilée,http://applis.cts-strasbourg.fr/CTS_FicheHorairev3/ResultatsFiches.aspx?arret=123B
COGAL_03,123C,48.55124354226166,7.685867249965668,Collège Galilée,http://applis.cts-strasbourg.fr/CTS_FicheHorairev3/ResultatsFiches.aspx?arret=123C
COGAL_04,123D,48.55103048324125,7.687143981456757,Collège Galilée,http://applis.cts-strasbourg.fr/CTS_FicheHorairev3/ResultatsFiches.aspx?arret=123D
COLEC_01,124A,48.60831900556383,7.731393724679947,Collège Leclerc,http://applis.cts-strasbourg.fr/CTS_FicheHorairev3/ResultatsFiches.aspx?arret=124A
COLEC_02,124B,48.608717151265466,7.731703519821167,Collège Leclerc,http://applis.cts-strasbourg.fr/CTS_FicheHorairev3/ResultatsFiches.aspx?arret=124B
COLLE_01,126A,48.64264819675877,7.708102762699127,Collège,http://applis.cts-strasbourg.fr/CTS_FicheHorairev3/ResultatsFiches.aspx?arret=126A
COLLE_02,126B,48.64262604327198,7.708546668291092,Collège,http://applis.cts-strasbourg.fr/CTS_FicheHorairev3/ResultatsFiches.aspx?arret=126B
COLOM_01,127A,48.530224501168426,7.768475264310837,Colombes,http://applis.cts-strasbourg.fr/CTS_FicheHorairev3/ResultatsFiches.aspx?arret=127A
COLON_01,128A,48.53845397326563,7.733259201049805,Colonne,http://applis.cts-strasbourg.fr/CTS_FicheHorairev3/ResultatsFiches.aspx?arret=128A
COLON_02,128B,48.53814051944537,7.733107656240463,Colonne,http://applis.cts-strasbourg.fr/CTS_FicheHorairev3/ResultatsFiches.aspx?arret=128B
COLON_03,128C,48.53794782873989,7.733591794967651,Colonne,http://applis.cts-strasbourg.fr/CTS_FicheHorairev3/ResultatsFiches.aspx?arret=128C
COLON_04,128D,48.53816804662914,7.733556926250458,Colonne,http://applis.cts-strasbourg.fr/CTS_FicheHorairev3/ResultatsFiches.aspx?arret=128D
COOPE_01,129A,48.57473400905336,7.793071120977402,Coopérative,http://applis.cts-strasbourg.fr/CTS_FicheHorairev3/ResultatsFiches.aspx?arret=129A
COOPE_02,129B,48.57481830550861,7.792269140481949,Coopérative,http://applis.cts-strasbourg.fr/CTS_FicheHorairev3/ResultatsFiches.aspx?arret=129B
COPER_01,130A,48.60092746800768,7.715376913547516,Copernic,http://applis.cts-strasbourg.fr/CTS_FicheHorairev3/ResultatsFiches.aspx?arret=130A
COPER_02,130B,48.600900861839506,7.715578079223633,Copernic,http://applis.cts-strasbourg.fr/CTS_FicheHorairev3/ResultatsFiches.aspx?arret=130B
COQUI_01,131A,48.58740972978577,7.782298028469086,Conseil des Quinze,http://applis.cts-strasbourg.fr/CTS_FicheHorairev3/ResultatsFiches.aspx?arret=131A
COQUI_02,131B,48.58736005163735,7.782373130321503,Conseil des Quinze,http://applis.cts-strasbourg.fr/CTS_FicheHorairev3/ResultatsFiches.aspx?arret=131B
CORBE_01,132A,48.57961321142417,7.751412391662598,Corbeau,http://applis.cts-strasbourg.fr/CTS_FicheHorairev3/ResultatsFiches.aspx?arret=132A
CORBE_02,132B,48.57949432029213,7.751397639513016,Corbeau,http://applis.cts-strasbourg.fr/CTS_FicheHorairev3/ResultatsFiches.aspx?arret=132B
COREU_02,133A,48.54420856943481,7.781414240598679,Neuhof Corps Européen,http://applis.cts-strasbourg.fr/CTS_FicheHorairev3/ResultatsFiches.aspx?arret=133A
COREU_03,133B,48.54393421764382,7.781178206205368,Neuhof Corps Européen,http://applis.cts-strasbourg.fr/CTS_FicheHorairev3/ResultatsFiches.aspx?arret=133B
COURO_01,134A,48.58684729932361,7.6523396372795105,Couronne,http://applis.cts-strasbourg.fr/CTS_FicheHorairev3/ResultatsFiches.aspx?arret=134A
COURO_02,134B,48.58679407214175,7.652299404144287,Couronne,http://applis.cts-strasbourg.fr/CTS_FicheHorairev3/ResultatsFiches.aspx?arret=134B
CRAMM_01,135A,48.5001849511034,7.717667520046234,C.R.A.M.,http://applis.cts-strasbourg.fr/CTS_FicheHorairev3/ResultatsFiches.aspx?arret=135A
CRAMM_02,135B,48.50013340998671,7.717723846435547,C.R.A.M.,http://applis.cts-strasbourg.fr/CTS_FicheHorairev3/ResultatsFiches.aspx?arret=135B
CRARA_01,136A,48.60475506269695,7.7172088623046875,Cronenbourg Arago,http://applis.cts-strasbourg.fr/CTS_FicheHorairev3/ResultatsFiches.aspx?arret=136A
CRARA_02,136B,48.604616720953565,7.7167850732803345,Cronenbourg Arago,http://applis.cts-strasbourg.fr/CTS_FicheHorairev3/ResultatsFiches.aspx?arret=136B
CRAVV_01,137A,48.55131633722133,7.733421474695206,CRAV,http://applis.cts-strasbourg.fr/CTS_FicheHorairev3/ResultatsFiches.aspx?arret=137A
CRAVV_02,137B,48.5506327706695,7.733001708984375,CRAV,http://applis.cts-strasbourg.fr/CTS_FicheHorairev3/ResultatsFiches.aspx?arret=137B
CRCHA_01,139A,48.49039475321913,7.694820463657379,Cressier Château d'eau,http://applis.cts-strasbourg.fr/CTS_FicheHorairev3/ResultatsFiches.aspx?arret=139A
CRCHA_02,139B,48.49031120490631,7.694973349571228,Cressier Château d'eau,http://applis.cts-strasbourg.fr/CTS_FicheHorairev3/ResultatsFiches.aspx?arret=139B
CRCTS_01,140A,48.592002086247106,7.73293063044548,Cronenbourg CTS,http://applis.cts-strasbourg.fr/CTS_FicheHorairev3/ResultatsFiches.aspx?arret=140A
CROIX_02,141A,48.555259536958886,7.6788130402565,Croix,http://applis.cts-strasbourg.fr/CTS_FicheHorairev3/ResultatsFiches.aspx?arret=141A
DALIS_01,142A,48.53960920698924,7.768098413944244,Dalis,http://applis.cts-strasbourg.fr/CTS_FicheHorairev3/ResultatsFiches.aspx?arret=142A
DALIS_02,142B,48.53970066556597,7.768164128065109,Dalis,http://applis.cts-strasbourg.fr/CTS_FicheHorairev3/ResultatsFiches.aspx?arret=142B
DANTE_01,143A,48.591410434614204,7.703046798706055,Dante,http://applis.cts-strasbourg.fr/CTS_FicheHorairev3/ResultatsFiches.aspx?arret=143A
DANTE_02,143B,48.59118335208773,7.702663242816925,Dante,http://applis.cts-strasbourg.fr/CTS_FicheHorairev3/ResultatsFiches.aspx?arret=143B
DANUB_01,144A,48.572909621858905,7.770776599645615,Danube,http://applis.cts-strasbourg.fr/CTS_FicheHorairev3/ResultatsFiches.aspx?arret=144A
DANUB_02,144B,48.57300368234129,7.770971059799194,Danube,http://applis.cts-strasbourg.fr/CTS_FicheHorairev3/ResultatsFiches.aspx?arret=144B
DAUPH_01,145A,48.63378159406756,7.744912058115005,Dauphiné,http://applis.cts-strasbourg.fr/CTS_FicheHorairev3/ResultatsFiches.aspx?arret=145A
DAUPH_02,145B,48.63390656151413,7.74604395031929,Dauphiné,http://applis.cts-strasbourg.fr/CTS_FicheHorairev3/ResultatsFiches.aspx?arret=145B
DECLE_01,146,48.5317467035537,7.715067118406296,Deux Clés,http://applis.cts-strasbourg.fr/CTS_FicheHorairev3/ResultatsFiches.aspx?arret=146
DECLE_02,146A,48.53191188729126,7.716024667024612,Deux Clés,http://applis.cts-strasbourg.fr/CTS_FicheHorairev3/ResultatsFiches.aspx?arret=146A
DEGAU_01,147A,48.488688207179486,7.709413021802902,De Gaulle,http://applis.cts-strasbourg.fr/CTS_FicheHorairev3/ResultatsFiches.aspx?arret=147A
DEGAU_02,147B,48.488610877951956,7.710200250148773,De Gaulle,http://applis.cts-strasbourg.fr/CTS_FicheHorairev3/ResultatsFiches.aspx?arret=147B
DELAT_01,148A,48.493367739213134,7.683866322040558,De Lattre de Tassigny,http://applis.cts-strasbourg.fr/CTS_FicheHorairev3/ResultatsFiches.aspx?arret=148A
DELAT_02,148B,48.49354549070051,7.68412783741951,De Lattre de Tassigny,http://applis.cts-strasbourg.fr/CTS_FicheHorairev3/ResultatsFiches.aspx?arret=148B
DIETT_01,149A,48.55281748798111,7.748923301696777,Dietterlin,http://applis.cts-strasbourg.fr/CTS_FicheHorairev3/ResultatsFiches.aspx?arret=149A
DIETT_02,149B,48.55267278999527,7.7494436502456665,Dietterlin,http://applis.cts-strasbourg.fr/CTS_FicheHorairev3/ResultatsFiches.aspx?arret=149B
DIGUE_01,150A,48.52086914543393,7.705153673887253,Graffenstaden Digue,http://applis.cts-strasbourg.fr/CTS_FicheHorairev3/ResultatsFiches.aspx?arret=150A
DIGUE_02,150B,48.52026156044081,7.7052488923072815,Graffenstaden Digue,http://applis.cts-strasbourg.fr/CTS_FicheHorairev3/ResultatsFiches.aspx?arret=150B
DNIED_01,151A,48.487983351353506,7.718773931264877,d'Niedergass,http://applis.cts-strasbourg.fr/CTS_FicheHorairev3/ResultatsFiches.aspx?arret=151A
DNIED_02,151B,48.48803312711796,7.718757838010788,d'Niedergass,http://applis.cts-strasbourg.fr/CTS_FicheHorairev3/ResultatsFiches.aspx?arret=151B
DOLLE_01,152A,48.61574758568467,7.774978280067444,Doller,http://applis.cts-strasbourg.fr/CTS_FicheHorairev3/ResultatsFiches.aspx?arret=152A
DOLLE_02,152B,48.615232461600954,7.774474024772644,Doller,http://applis.cts-strasbourg.fr/CTS_FicheHorairev3/ResultatsFiches.aspx?arret=152B
DONON_01,153A,48.58697238298025,7.666143625974655,Donon,http://applis.cts-strasbourg.fr/CTS_FicheHorairev3/ResultatsFiches.aspx?arret=153A
DONON_02,153B,48.58690762339525,7.665514647960663,Donon,http://applis.cts-strasbourg.fr/CTS_FicheHorairev3/ResultatsFiches.aspx?arret=153B
DORDO_01,154C,48.58999647446448,7.7669477462768555,Dordogne,http://applis.cts-strasbourg.fr/CTS_FicheHorairev3/ResultatsFiches.aspx?arret=154C
DORDO_02,154D,48.5899255092988,7.766810953617096,Dordogne,http://applis.cts-strasbourg.fr/CTS_FicheHorairev3/ResultatsFiches.aspx?arret=154D
DORDO_03,154A,48.58903488799568,7.766591012477875,Dordogne,http://applis.cts-strasbourg.fr/CTS_FicheHorairev3/ResultatsFiches.aspx?arret=154A
DORDO_04,154B,48.58946600743922,7.766735851764679,Dordogne,http://applis.cts-strasbourg.fr/CTS_FicheHorairev3/ResultatsFiches.aspx?arret=154B
DOUBS_01,155A,48.5684104868956,7.739139944314957,Doubs,http://applis.cts-strasbourg.fr/CTS_FicheHorairev3/ResultatsFiches.aspx?arret=155A
DOUBS_02,155B,48.56841137433842,7.7392807602882385,Doubs,http://applis.cts-strasbourg.fr/CTS_FicheHorairev3/ResultatsFiches.aspx?arret=155B
DRHOM_03,156C,48.596221505768014,7.77407169342041,Droits de l'Homme,http://applis.cts-strasbourg.fr/CTS_FicheHorairev3/ResultatsFiches.aspx?arret=156C
DRHOM_04,156D,48.59605387105861,7.774235308170319,Droits de l'Homme,http://applis.cts-strasbourg.fr/CTS_FicheHorairev3/ResultatsFiches.aspx?arret=156D
DRHOM_05,156A,48.59606185367645,7.775367200374603,Droits de l'Homme,http://applis.cts-strasbourg.fr/CTS_FicheHorairev3/ResultatsFiches.aspx?arret=156A
DRHOM_06,156B,48.59614167978528,7.774997055530548,Droits de l'Homme,http://applis.cts-strasbourg.fr/CTS_FicheHorairev3/ResultatsFiches.aspx?arret=156B
DUALS_01,157A,48.59020315994164,7.715446650981903,Ducs d'Alsace,http://applis.cts-strasbourg.fr/CTS_FicheHorairev3/ResultatsFiches.aspx?arret=157A
DUALS_02,157B,48.59014904923316,7.715092599391937,Ducs d'Alsace,http://applis.cts-strasbourg.fr/CTS_FicheHorairev3/ResultatsFiches.aspx?arret=157B
DUNKE_01,158A,48.57794516102736,7.78429895639419,Dunkerque,http://applis.cts-strasbourg.fr/CTS_FicheHorairev3/ResultatsFiches.aspx?arret=158A
DUNKE_02,158B,48.57771446887406,7.784655690193176,Dunkerque,http://applis.cts-strasbourg.fr/CTS_FicheHorairev3/ResultatsFiches.aspx?arret=158B
DUNTZ_01,159A,48.59854172588335,7.702530473470688,Duntzenheim,http://applis.cts-strasbourg.fr/CTS_FicheHorairev3/ResultatsFiches.aspx?arret=159A
DUNTZ_02,159B,48.59871556071394,7.702133506536484,Duntzenheim,http://applis.cts-strasbourg.fr/CTS_FicheHorairev3/ResultatsFiches.aspx?arret=159B
ECCEN_01,160A,48.58077903950087,7.686588764190674,Eckbolsheim Centre,http://applis.cts-strasbourg.fr/CTS_FicheHorairev3/ResultatsFiches.aspx?arret=160A
ECCEN_02,160B,48.58034429701492,7.687406837940216,Eckbolsheim Centre,http://applis.cts-strasbourg.fr/CTS_FicheHorairev3/ResultatsFiches.aspx?arret=160B
ECCHI_01,161A,48.60766369878763,7.718043029308319,Ecole de Chimie,http://applis.cts-strasbourg.fr/CTS_FicheHorairev3/ResultatsFiches.aspx?arret=161A
ECCHI_02,161B,48.607530685548596,7.71795853972435,Ecole de Chimie,http://applis.cts-strasbourg.fr/CTS_FicheHorairev3/ResultatsFiches.aspx?arret=161B
ECCIM_01,163A,48.68297178419363,7.694345712661743,Eckwersheim Cimetière,http://applis.cts-strasbourg.fr/CTS_FicheHorairev3/ResultatsFiches.aspx?arret=163A
ECCIM_02,163B,48.68329053820354,7.6947131752967834,Eckwersheim Cimetière,http://applis.cts-strasbourg.fr/CTS_FicheHorairev3/ResultatsFiches.aspx?arret=163B
ECHIP_01,164A,48.685159635702774,7.698146402835846,Eckwersheim Hippodrome,http://applis.cts-strasbourg.fr/CTS_FicheHorairev3/ResultatsFiches.aspx?arret=164A
ECKPA_02,165A,48.59051806537385,7.683522999286652,Eckbolsheim Parc d'Activités,http://applis.cts-strasbourg.fr/CTS_FicheHorairev3/ResultatsFiches.aspx?arret=165A
ECMAI_01,166A,48.681391265761526,7.693861573934555,Eckwersheim Mairie,http://applis.cts-strasbourg.fr/CTS_FicheHorairev3/ResultatsFiches.aspx?arret=166A
ECMAI_02,166B,48.68058017934372,7.694406062364578,Eckwersheim Mairie,http://applis.cts-strasbourg.fr/CTS_FicheHorairev3/ResultatsFiches.aspx?arret=166B
ECOLE_01,168A,48.505112217588334,7.608633041381836,Ecole,http://applis.cts-strasbourg.fr/CTS_FicheHorairev3/ResultatsFiches.aspx?arret=168A
ECOLE_02,168B,48.505314807292464,7.607761323451996,Ecole,http://applis.cts-strasbourg.fr/CTS_FicheHorairev3/ResultatsFiches.aspx?arret=168B
ECRIV_01,169A,48.60960299202102,7.734330743551254,Ecrivains,http://applis.cts-strasbourg.fr/CTS_FicheHorairev3/ResultatsFiches.aspx?arret=169A
ECRIV_02,169B,48.610286648285786,7.734165787696838,Ecrivains,http://applis.cts-strasbourg.fr/CTS_FicheHorairev3/ResultatsFiches.aspx?arret=169B
ECRIV_03,169C,48.61077433516574,7.73467943072319,Ecrivains,http://applis.cts-strasbourg.fr/CTS_FicheHorairev3/ResultatsFiches.aspx?arret=169C
ECRIV_04,169D,48.61069453218043,7.734833657741547,Ecrivains,http://applis.cts-strasbourg.fr/CTS_FicheHorairev3/ResultatsFiches.aspx?arret=169D
EHNNN_01,172A,48.51701210061662,7.6719143986701965,Ehn,http://applis.cts-strasbourg.fr/CTS_FicheHorairev3/ResultatsFiches.aspx?arret=172A
EHNNN_02,172B,48.51713469200407,7.673260867595673,Ehn,http://applis.cts-strasbourg.fr/CTS_FicheHorairev3/ResultatsFiches.aspx?arret=172B
ELISA_01,173A,48.515096793751496,7.6976582407951355,Elisa,http://applis.cts-strasbourg.fr/CTS_FicheHorairev3/ResultatsFiches.aspx?arret=173A
ELISA_02,173B,48.51718710417342,7.700895667076111,Elisa,http://applis.cts-strasbourg.fr/CTS_FicheHorairev3/ResultatsFiches.aspx?arret=173B
ELMER_01,174A,48.56254769977529,7.710265964269638,Elmerforst,http://applis.cts-strasbourg.fr/CTS_FicheHorairev3/ResultatsFiches.aspx?arret=174A
ELMER_02,174B,48.56189712458811,7.711092084646225,Elmerforst,http://applis.cts-strasbourg.fr/CTS_FicheHorairev3/ResultatsFiches.aspx?arret=174B
ELMER_03,174C,48.5631778533018,7.711698263883591,Elmerforst,http://applis.cts-strasbourg.fr/CTS_FicheHorairev3/ResultatsFiches.aspx?arret=174C
ELMER_04,174D,48.56295508161421,7.711400538682938,Elmerforst,http://applis.cts-strasbourg.fr/CTS_FicheHorairev3/ResultatsFiches.aspx?arret=174D
ELSAU_01,175A,48.567684553454235,7.726111114025116,Elsau,http://applis.cts-strasbourg.fr/CTS_FicheHorairev3/ResultatsFiches.aspx?arret=175A
ELSAU_02,175B,48.56779903509249,7.726103067398071,Elsau,http://applis.cts-strasbourg.fr/CTS_FicheHorairev3/ResultatsFiches.aspx?arret=175B
ELSAU_03,175C,48.567775073840785,7.726404815912247,Elsau,http://applis.cts-strasbourg.fr/CTS_FicheHorairev3/ResultatsFiches.aspx?arret=175C
ELSAU_04,175D,48.56789044272607,7.726139277219772,Elsau,http://applis.cts-strasbourg.fr/CTS_FicheHorairev3/ResultatsFiches.aspx?arret=175D
EMAIL_01,679B,48.625932841033894,7.75584876537323,Emailleries,http://applis.cts-strasbourg.fr/CTS_FicheHorairev3/ResultatsFiches.aspx?arret=679B
EMAIL_02,679A,48.62523787284451,7.7550360560417175,Emailleries,http://applis.cts-strasbourg.fr/CTS_FicheHorairev3/ResultatsFiches.aspx?arret=679A
EMAIL_03,679C,48.625954488115255,7.755956444705134,Emailleries,http://applis.cts-strasbourg.fr/CTS_FicheHorairev3/ResultatsFiches.aspx?arret=679C
EMAIL_04,679D,48.62521047293257,7.754916052184285,Emailleries,http://applis.cts-strasbourg.fr/CTS_FicheHorairev3/ResultatsFiches.aspx?arret=679D
EMBRA_01,678A,48.599746140637734,7.739716619253159,Embranchement,http://applis.cts-strasbourg.fr/CTS_FicheHorairev3/ResultatsFiches.aspx?arret=678A
EMBRA_02,678B,48.60017450803441,7.7396321296691895,Embranchement,http://applis.cts-strasbourg.fr/CTS_FicheHorairev3/ResultatsFiches.aspx?arret=678B
EMMAT_01,176A,48.553556950367906,7.745397537946701,Emile Mathis,http://applis.cts-strasbourg.fr/CTS_FicheHorairev3/ResultatsFiches.aspx?arret=176A
EMMAT_02,176B,48.55284234403518,7.744193226099014,Emile Mathis,http://applis.cts-strasbourg.fr/CTS_FicheHorairev3/ResultatsFiches.aspx?arret=176B
EMMAT_03,176C,48.55305539542638,7.744140923023224,Emile Mathis,http://applis.cts-strasbourg.fr/CTS_FicheHorairev3/ResultatsFiches.aspx?arret=176C
EMMAT_04,176D,48.55335721669488,7.744402438402176,Emile Mathis,http://applis.cts-strasbourg.fr/CTS_FicheHorairev3/ResultatsFiches.aspx?arret=176D
EMMAT_05,176E,48.55295330841335,7.743556201457977,Emile Mathis,http://applis.cts-strasbourg.fr/CTS_FicheHorairev3/ResultatsFiches.aspx?arret=176E
EMMAT_06,176F,48.55318943980023,7.743261158466339,Emile Mathis,http://applis.cts-strasbourg.fr/CTS_FicheHorairev3/ResultatsFiches.aspx?arret=176F
ENCEN_01,177A,48.53287633641977,7.6352351903915405,Entzheim centre,http://applis.cts-strasbourg.fr/CTS_FicheHorairev3/ResultatsFiches.aspx?arret=177A
ENCEN_02,177B,48.53276266381266,7.635107785463333,Entzheim centre,http://applis.cts-strasbourg.fr/CTS_FicheHorairev3/ResultatsFiches.aspx?arret=177B
ENGEL_01,178A,48.58058207500111,7.707625329494476,Engelbreit,http://applis.cts-strasbourg.fr/CTS_FicheHorairev3/ResultatsFiches.aspx?arret=178A
ENGEL_02,178B,48.580534164601346,7.707756757736206,Engelbreit,http://applis.cts-strasbourg.fr/CTS_FicheHorairev3/ResultatsFiches.aspx?arret=178B
ENOUE_01,179A,48.5313168680767,7.629176080226898,Entzheim Ouest,http://applis.cts-strasbourg.fr/CTS_FicheHorairev3/ResultatsFiches.aspx?arret=179A
ERMIT_01,180A,48.49599750887715,7.7172209322452545,Ermitage,http://applis.cts-strasbourg.fr/CTS_FicheHorairev3/ResultatsFiches.aspx?arret=180A
ERMIT_02,180B,48.495995731451345,7.717279940843582,Ermitage,http://applis.cts-strasbourg.fr/CTS_FicheHorairev3/ResultatsFiches.aspx?arret=180B
ESCAL_01,181A,48.61074950758382,7.78244286775589,l'Escale,http://applis.cts-strasbourg.fr/CTS_FicheHorairev3/ResultatsFiches.aspx?arret=181A
ESCAL_02,181B,48.61076458147429,7.7821384370327,l'Escale,http://applis.cts-strasbourg.fr/CTS_FicheHorairev3/ResultatsFiches.aspx?arret=181B
ESEUE_01,182A,48.61253972228361,7.7151985466480255,Espace Européen de l' Entreprise,http://applis.cts-strasbourg.fr/CTS_FicheHorairev3/ResultatsFiches.aspx?arret=182A
ESEUE_02,182B,48.612076879395985,7.714454233646393,Espace Européen de l'Entreprise,http://applis.cts-strasbourg.fr/CTS_FicheHorairev3/ResultatsFiches.aspx?arret=182B
ESMAI_01,183A,48.48415491537781,7.7140384912490845,Eschau Mairie,http://applis.cts-strasbourg.fr/CTS_FicheHorairev3/ResultatsFiches.aspx?arret=183A
ESMAI_02,183B,48.48400913221076,7.713862806558609,Eschau Mairie,http://applis.cts-strasbourg.fr/CTS_FicheHorairev3/ResultatsFiches.aspx?arret=183B
ESPER_01,184A,48.46770188527847,7.735101878643036,Espérance,http://applis.cts-strasbourg.fr/CTS_FicheHorairev3/ResultatsFiches.aspx?arret=184A
ESPLA_01,185A,48.578220215680375,7.76927188038826,Esplanade,http://applis.cts-strasbourg.fr/CTS_FicheHorairev3/ResultatsFiches.aspx?arret=185A
ESPLA_02,185B,48.57852011227404,7.769623249769211,Esplanade,http://applis.cts-strasbourg.fr/CTS_FicheHorairev3/ResultatsFiches.aspx?arret=185B
ESPLA_03,185C,48.578233524738536,7.769395262002945,Esplanade,http://applis.cts-strasbourg.fr/CTS_FicheHorairev3/ResultatsFiches.aspx?arret=185C
ESPLA_04,185D,48.57846421452314,7.769489139318466,Esplanade,http://applis.cts-strasbourg.fr/CTS_FicheHorairev3/ResultatsFiches.aspx?arret=185D
ETBOU_03,186C,48.57446869613474,7.753743231296539,Etoile Bourse,http://applis.cts-strasbourg.fr/CTS_FicheHorairev3/ResultatsFiches.aspx?arret=186C
ETBOU_04,186A,48.575152827950745,7.7526408433914185,Etoile Bourse,http://applis.cts-strasbourg.fr/CTS_FicheHorairev3/ResultatsFiches.aspx?arret=186A
ETBOU_05,186B,48.575198081479854,7.754238098859787,Etoile Bourse,http://applis.cts-strasbourg.fr/CTS_FicheHorairev3/ResultatsFiches.aspx?arret=186B
ETBOU_1B,186D,48.57432494741671,7.753654718399048,Etoile Bourse,http://applis.cts-strasbourg.fr/CTS_FicheHorairev3/ResultatsFiches.aspx?arret=186D
ETDOR_01,187A,48.59474559165051,7.710917741060257,Etoile d'Or,http://applis.cts-strasbourg.fr/CTS_FicheHorairev3/ResultatsFiches.aspx?arret=187A
ETDOR_02,187B,48.59483872452501,7.710473835468292,Etoile d'Or,http://applis.cts-strasbourg.fr/CTS_FicheHorairev3/ResultatsFiches.aspx?arret=187B
ETOIL_01,186E,48.57462397978449,7.753481715917587,Etoile  Bourse,http://applis.cts-strasbourg.fr/CTS_FicheHorairev3/ResultatsFiches.aspx?arret=186E
ETOIL_02,186F,48.57493809496641,7.7534642815589905,Etoile  Bourse,http://applis.cts-strasbourg.fr/CTS_FicheHorairev3/ResultatsFiches.aspx?arret=186F
ETPOL_01,189A,48.57162559003973,7.755255997180939,Etoile Polygone,http://applis.cts-strasbourg.fr/CTS_FicheHorairev3/ResultatsFiches.aspx?arret=189A
ETPOL_02,189B,48.571527977441335,7.755679786205292,Etoile Polygone,http://applis.cts-strasbourg.fr/CTS_FicheHorairev3/ResultatsFiches.aspx?arret=189B
ETPOL_03,189C,48.57163446390296,7.755631506443024,Etoile Polygone ,http://applis.cts-strasbourg.fr/CTS_FicheHorairev3/ResultatsFiches.aspx?arret=189C
ETPOL_04,189D,48.57195924622589,7.75510847568512,Etoile Polygone ,http://applis.cts-strasbourg.fr/CTS_FicheHorairev3/ResultatsFiches.aspx?arret=189D
EUROF_01,190A,48.52441058133376,7.778335064649582,Eurofret,http://applis.cts-strasbourg.fr/CTS_FicheHorairev3/ResultatsFiches.aspx?arret=190A
EUROF_02,190B,48.52510367505483,7.778812038557476,Eurofret,http://applis.cts-strasbourg.fr/CTS_FicheHorairev3/ResultatsFiches.aspx?arret=190B
EUROF_04,190D,48.52521470025391,7.778832155125087,Eurofret,http://applis.cts-strasbourg.fr/CTS_FicheHorairev3/ResultatsFiches.aspx?arret=190D
FAALE_01,191A,48.65351109426794,7.8286828100681305,Faubourg d'Alençon,http://applis.cts-strasbourg.fr/CTS_FicheHorairev3/ResultatsFiches.aspx?arret=191A
FAALE_02,191B,48.65354121650487,7.828236222267151,Faubourg d'Alençon,http://applis.cts-strasbourg.fr/CTS_FicheHorairev3/ResultatsFiches.aspx?arret=191B
FAANS_01,192A,48.55250234766524,7.673546522855759,Faisans,http://applis.cts-strasbourg.fr/CTS_FicheHorairev3/ResultatsFiches.aspx?arret=192A
FAANS_02,192B,48.55217655265551,7.672779411077499,Faisans,http://applis.cts-strasbourg.fr/CTS_FicheHorairev3/ResultatsFiches.aspx?arret=192B
FANAG_01,193A,48.5824230420758,7.736862748861313,Faubourg National,http://applis.cts-strasbourg.fr/CTS_FicheHorairev3/ResultatsFiches.aspx?arret=193A
FANAG_02,193B,48.58241949328811,7.736421525478363,Faubourg National,http://applis.cts-strasbourg.fr/CTS_FicheHorairev3/ResultatsFiches.aspx?arret=193B
FAPAI_01,194A,48.51981208498125,7.709211856126785,Faubourg de la Paix,http://applis.cts-strasbourg.fr/CTS_FicheHorairev3/ResultatsFiches.aspx?arret=194A
FAPAI_02,194B,48.5202206992002,7.708877921104431,Faubourg de la Paix,http://applis.cts-strasbourg.fr/CTS_FicheHorairev3/ResultatsFiches.aspx?arret=194B
FAPIE_01,195A,48.5874940051044,7.746211588382721,Faubourg de Pierre,http://applis.cts-strasbourg.fr/CTS_FicheHorairev3/ResultatsFiches.aspx?arret=195A
FAPIE_02,195B,48.587490456672775,7.746351063251495,Faubourg de Pierre,http://applis.cts-strasbourg.fr/CTS_FicheHorairev3/ResultatsFiches.aspx?arret=195B
FARIE_01,196A,48.53442865242139,7.760373651981354,Faisanderie,http://applis.cts-strasbourg.fr/CTS_FicheHorairev3/ResultatsFiches.aspx?arret=196A
FARIE_02,196B,48.53470483180302,7.760451436042786,Faisanderie,http://applis.cts-strasbourg.fr/CTS_FicheHorairev3/ResultatsFiches.aspx?arret=196B
FASAV_01,197A,48.58579250355135,7.739955335855484,Faubourg de Saverne,http://applis.cts-strasbourg.fr/CTS_FicheHorairev3/ResultatsFiches.aspx?arret=197A
FASAV_02,197B,48.58607993536365,7.739826589822769,Faubourg de Saverne,http://applis.cts-strasbourg.fr/CTS_FicheHorairev3/ResultatsFiches.aspx?arret=197B
FASAV_04,197C,48.586180181259365,7.739870846271515,Faubourg de Saverne,http://applis.cts-strasbourg.fr/CTS_FicheHorairev3/ResultatsFiches.aspx?arret=197C
FASAV_05,197D,48.58590339564794,7.739982157945633,Faubourg de Saverne,http://applis.cts-strasbourg.fr/CTS_FicheHorairev3/ResultatsFiches.aspx?arret=197D
FEDER_01,199A,48.564246433731356,7.738608866930008,Fédération,http://applis.cts-strasbourg.fr/CTS_FicheHorairev3/ResultatsFiches.aspx?arret=199A
FEDER_02,199B,48.56414170674695,7.7387188374996185,Fédération,http://applis.cts-strasbourg.fr/CTS_FicheHorairev3/ResultatsFiches.aspx?arret=199B
FEMAI_01,210A,48.49046763567749,7.679928839206696,Fegersheim Mairie,http://applis.cts-strasbourg.fr/CTS_FicheHorairev3/ResultatsFiches.aspx?arret=210A
FEMAI_02,210B,48.490499632821226,7.679832279682159,Fegersheim Mairie,http://applis.cts-strasbourg.fr/CTS_FicheHorairev3/ResultatsFiches.aspx?arret=210B
FISCH_01,213A,48.61881516931029,7.788020521402359,Fischacker,http://applis.cts-strasbourg.fr/CTS_FicheHorairev3/ResultatsFiches.aspx?arret=213A
FISCH_02,213B,48.61871942096346,7.7874331176280975,Fischacker,http://applis.cts-strasbourg.fr/CTS_FicheHorairev3/ResultatsFiches.aspx?arret=213B
FLORA_01,214A,48.5368751408073,7.643020302057266,Floralies,http://applis.cts-strasbourg.fr/CTS_FicheHorairev3/ResultatsFiches.aspx?arret=214A
FLORA_02,214B,48.53676858116233,7.643036395311356,Floralies,http://applis.cts-strasbourg.fr/CTS_FicheHorairev3/ResultatsFiches.aspx?arret=214B
FOCHH_01,215A,48.62772340375402,7.753751277923584,Foch,http://applis.cts-strasbourg.fr/CTS_FicheHorairev3/ResultatsFiches.aspx?arret=215A
FOCHH_02,215B,48.627852818201646,7.753846496343613,Foch,http://applis.cts-strasbourg.fr/CTS_FicheHorairev3/ResultatsFiches.aspx?arret=215B
FODES_01,216A,48.63465813225275,7.7277445793151855,Fort Desaix,http://applis.cts-strasbourg.fr/CTS_FicheHorairev3/ResultatsFiches.aspx?arret=216A
FODES_04,216B,48.63495946643282,7.729423642158508,Fort Desaix,http://applis.cts-strasbourg.fr/CTS_FicheHorairev3/ResultatsFiches.aspx?arret=216B
FOLOU_01,217A,48.60483310146196,7.777860313653946,Fort Louis,http://applis.cts-strasbourg.fr/CTS_FicheHorairev3/ResultatsFiches.aspx?arret=217A
FOLOU_02,217B,48.605172746046016,7.777885794639587,Fort Louis,http://applis.cts-strasbourg.fr/CTS_FicheHorairev3/ResultatsFiches.aspx?arret=217B
FONDE_01,218A,48.60919864621651,7.745252698659897,Fondeur,http://applis.cts-strasbourg.fr/CTS_FicheHorairev3/ResultatsFiches.aspx?arret=218A
FONDE_02,218B,48.60872424514707,7.744157016277313,Fondeur,http://applis.cts-strasbourg.fr/CTS_FicheHorairev3/ResultatsFiches.aspx?arret=218B
FONTA_01,219A,48.62376635249223,7.750826328992844,Fontaine,http://applis.cts-strasbourg.fr/CTS_FicheHorairev3/ResultatsFiches.aspx?arret=219A
FONTA_02,219B,48.62378408190842,7.751979678869247,Fontaine,http://applis.cts-strasbourg.fr/CTS_FicheHorairev3/ResultatsFiches.aspx?arret=219B
FOUHR_01,221A,48.51448025563552,7.723258584737778,Illkirch Fort Uhrich,http://applis.cts-strasbourg.fr/CTS_FicheHorairev3/ResultatsFiches.aspx?arret=221A
FOURR_01,222A,48.51554719941931,7.6449984312057495,Four,http://applis.cts-strasbourg.fr/CTS_FicheHorairev3/ResultatsFiches.aspx?arret=222A
FOURR_02,222B,48.51551255297164,7.6452720165252686,Four,http://applis.cts-strasbourg.fr/CTS_FicheHorairev3/ResultatsFiches.aspx?arret=222B
FRCOM_01,223A,48.55196882395195,7.751757055521011,Franche Comté,http://applis.cts-strasbourg.fr/CTS_FicheHorairev3/ResultatsFiches.aspx?arret=223A
FRCOM_02,223B,48.55173091139761,7.7515169978141785,Franche Comté,http://applis.cts-strasbourg.fr/CTS_FicheHorairev3/ResultatsFiches.aspx?arret=223B
FREBE_01,224A,48.555225805351256,7.73506298661232,Frères Eberts,http://applis.cts-strasbourg.fr/CTS_FicheHorairev3/ResultatsFiches.aspx?arret=224A
FREBE_02,224B,48.55532256174443,7.734833657741547,Frères Eberts,http://applis.cts-strasbourg.fr/CTS_FicheHorairev3/ResultatsFiches.aspx?arret=224B
FRLUM_01,225A,48.614525819841106,7.738281637430191,Frères Lumière,http://applis.cts-strasbourg.fr/CTS_FicheHorairev3/ResultatsFiches.aspx?arret=225A
FRLUM_02,225B,48.614477054988456,7.7382829785346985,Frères Lumière,http://applis.cts-strasbourg.fr/CTS_FicheHorairev3/ResultatsFiches.aspx?arret=225B
FUAMB_01,227A,48.62604985004286,7.804034650325775,Fuchs am Buckel,http://applis.cts-strasbourg.fr/CTS_FicheHorairev3/ResultatsFiches.aspx?arret=227A
FUAMB_02,227B,48.625962093311564,7.803872376680374,Fuchs am Buckel,http://applis.cts-strasbourg.fr/CTS_FicheHorairev3/ResultatsFiches.aspx?arret=227B
FUGLA_01,228A,48.60514170812404,7.759551554918289,Futura Glacière,http://applis.cts-strasbourg.fr/CTS_FicheHorairev3/ResultatsFiches.aspx?arret=228A
FUGLA_02,228B,48.6049794238213,7.75921493768692,Futura Glacière,http://applis.cts-strasbourg.fr/CTS_FicheHorairev3/ResultatsFiches.aspx?arret=228B
FUMAR_01,229A,48.491351104951086,7.729978859424591,Fusiliers Marins,http://applis.cts-strasbourg.fr/CTS_FicheHorairev3/ResultatsFiches.aspx?arret=229A
FUMAR_02,229B,48.49135554892262,7.729899734258652,Fusiliers Marins,http://applis.cts-strasbourg.fr/CTS_FicheHorairev3/ResultatsFiches.aspx?arret=229B
GACEN_01,230A,48.58544030863903,7.735636979341507,Gare Centrale,http://applis.cts-strasbourg.fr/CTS_FicheHorairev3/ResultatsFiches.aspx?arret=230A
GACEN_02,230B,48.58548644010225,7.73593470454216,Gare Centrale,http://applis.cts-strasbourg.fr/CTS_FicheHorairev3/ResultatsFiches.aspx?arret=230B
GACEN_03,230E,48.58504197944552,7.735227942466736,Gare Centrale,http://applis.cts-strasbourg.fr/CTS_FicheHorairev3/ResultatsFiches.aspx?arret=230E
GACEN_04,230F,48.585265540982974,7.735451906919479,Gare Centrale,http://applis.cts-strasbourg.fr/CTS_FicheHorairev3/ResultatsFiches.aspx?arret=230F
GACEN_09,230C,48.58515841315682,7.735516168088111,Gare Centrale,http://applis.cts-strasbourg.fr/CTS_FicheHorairev3/ResultatsFiches.aspx?arret=230C
GACEN_10,230D,48.58509609562267,7.735482752323151,Gare Centrale,http://applis.cts-strasbourg.fr/CTS_FicheHorairev3/ResultatsFiches.aspx?arret=230D
GACEN_11,230G,48.58581556912748,7.735988348722458,Gare Centrale,http://applis.cts-strasbourg.fr/CTS_FicheHorairev3/ResultatsFiches.aspx?arret=230G
GAERT_01,231A,48.6325141762343,7.728211283683777,Gaertel,http://applis.cts-strasbourg.fr/CTS_FicheHorairev3/ResultatsFiches.aspx?arret=231A
GAERT_02,231B,48.63210912759818,7.728452682495117,Gaertel,http://applis.cts-strasbourg.fr/CTS_FicheHorairev3/ResultatsFiches.aspx?arret=231B
GAFOR_01,232A,48.621088252652406,7.787241339683533,Gardes Forestiers,http://applis.cts-strasbourg.fr/CTS_FicheHorairev3/ResultatsFiches.aspx?arret=232A
GAFOR_02,232B,48.621260236852166,7.787211835384369,Gardes Forestiers,http://applis.cts-strasbourg.fr/CTS_FicheHorairev3/ResultatsFiches.aspx?arret=232B
GALLI_01,233C,48.58442096998593,7.759000360965729,Gallia,http://applis.cts-strasbourg.fr/CTS_FicheHorairev3/ResultatsFiches.aspx?arret=233C
GALLI_02,233D,48.5844582307687,7.759232372045517,Gallia,http://applis.cts-strasbourg.fr/CTS_FicheHorairev3/ResultatsFiches.aspx?arret=233D
GALLI_03,233A,48.58429499285031,7.758530974388123,Gallia,http://applis.cts-strasbourg.fr/CTS_FicheHorairev3/ResultatsFiches.aspx?arret=233A
GALLI_04,233B,48.58445202064015,7.758229225873947,Gallia,http://applis.cts-strasbourg.fr/CTS_FicheHorairev3/ResultatsFiches.aspx?arret=233B
GEBUR_01,235A,48.61516773823766,7.729182243347168,Georges Burger,http://applis.cts-strasbourg.fr/CTS_FicheHorairev3/ResultatsFiches.aspx?arret=235A
GEBUR_02,235B,48.61514379943846,7.729713320732117,Georges Burger,http://applis.cts-strasbourg.fr/CTS_FicheHorairev3/ResultatsFiches.aspx?arret=235B
GECEN_02,236A,48.52475343105574,7.690094411373138,Geispolsheim Centre Commercial,http://applis.cts-strasbourg.fr/CTS_FicheHorairev3/ResultatsFiches.aspx?arret=236A
GEGAR_01,237A,48.51842366030161,7.683430463075638,Geispolsheim Gare,http://applis.cts-strasbourg.fr/CTS_FicheHorairev3/ResultatsFiches.aspx?arret=237A
GEGAR_02,237B,48.51878254019324,7.683847546577454,Geispolsheim Gare,http://applis.cts-strasbourg.fr/CTS_FicheHorairev3/ResultatsFiches.aspx?arret=237B
GEGAU_01,238A,48.62162282017801,7.763785421848297,Général De Gaulle,http://applis.cts-strasbourg.fr/CTS_FicheHorairev3/ResultatsFiches.aspx?arret=238A
GEGAU_02,238B,48.621624593195214,7.76415690779686,Général De Gaulle,http://applis.cts-strasbourg.fr/CTS_FicheHorairev3/ResultatsFiches.aspx?arret=238B
GELEC_01,239A,48.65507211119904,7.831295281648636,Général Leclerc,http://applis.cts-strasbourg.fr/CTS_FicheHorairev3/ResultatsFiches.aspx?arret=239A
GELEC_02,239B,48.655840198836614,7.830782979726791,Général Leclerc,http://applis.cts-strasbourg.fr/CTS_FicheHorairev3/ResultatsFiches.aspx?arret=239B
GELEJ_01,240A,48.61299280766744,7.788330316543579,Général Lejeune,http://applis.cts-strasbourg.fr/CTS_FicheHorairev3/ResultatsFiches.aspx?arret=240A
GELEJ_02,240B,48.6129076882186,7.788306176662445,Général Lejeune,http://applis.cts-strasbourg.fr/CTS_FicheHorairev3/ResultatsFiches.aspx?arret=240B
GEMAI_01,241A,48.51511989157545,7.64274001121521,Geispolsheim Mairie,http://applis.cts-strasbourg.fr/CTS_FicheHorairev3/ResultatsFiches.aspx?arret=241A
GEMAI_02,241B,48.514962648488805,7.6421137154102325,Geispolsheim Mairie,http://applis.cts-strasbourg.fr/CTS_FicheHorairev3/ResultatsFiches.aspx?arret=241B
GEMOT_01,242A,48.51601536832487,7.775376588106155,General Motors,http://applis.cts-strasbourg.fr/CTS_FicheHorairev3/ResultatsFiches.aspx?arret=242A
GEOUE_01,243A,48.51506037023849,7.640602290630341,Geispolsheim Ouest,http://applis.cts-strasbourg.fr/CTS_FicheHorairev3/ResultatsFiches.aspx?arret=243A
GEOUE_03,243B,48.5147858604809,7.640024274587631,Geispolsheim Ouest,http://applis.cts-strasbourg.fr/CTS_FicheHorairev3/ResultatsFiches.aspx?arret=243B
GEZOI_01,244A,48.531830183574435,7.685100138187408,Geispolsheim Zone Industrielle,http://applis.cts-strasbourg.fr/CTS_FicheHorairev3/ResultatsFiches.aspx?arret=244A
GEZOI_02,244B,48.52883902631423,7.685609757900238,Geispolsheim Zone Industrielle,http://applis.cts-strasbourg.fr/CTS_FicheHorairev3/ResultatsFiches.aspx?arret=244B
GLAUB_01,245A,48.543088068287915,7.764249444007873,Glaubitz,http://applis.cts-strasbourg.fr/CTS_FicheHorairev3/ResultatsFiches.aspx?arret=245A
GLAUB_02,245B,48.54337929442663,7.764698714017868,Glaubitz,http://applis.cts-strasbourg.fr/CTS_FicheHorairev3/ResultatsFiches.aspx?arret=245B
GLIES_01,246A,48.567900204696606,7.709231972694397,Gliesberg,http://applis.cts-strasbourg.fr/CTS_FicheHorairev3/ResultatsFiches.aspx?arret=246A
GLIES_02,246B,48.56765881723631,7.709154188632965,Gliesberg,http://applis.cts-strasbourg.fr/CTS_FicheHorairev3/ResultatsFiches.aspx?arret=246B
GLOEC_02,247A,48.50458530285526,7.604291886091232,Gloeckelsberg,http://applis.cts-strasbourg.fr/CTS_FicheHorairev3/ResultatsFiches.aspx?arret=247A
GOLBE_01,248A,48.58746295631915,7.766798883676529,Golbery,http://applis.cts-strasbourg.fr/CTS_FicheHorairev3/ResultatsFiches.aspx?arret=248A
GOLBE_02,248B,48.58712585399416,7.766053229570389,Golbery,http://applis.cts-strasbourg.fr/CTS_FicheHorairev3/ResultatsFiches.aspx?arret=248B
GOLDS_01,249A,48.533519292299594,7.771488726139069,Goldschmidt,http://applis.cts-strasbourg.fr/CTS_FicheHorairev3/ResultatsFiches.aspx?arret=249A
GOLDS_02,249B,48.53337098690258,7.771472632884979,Goldschmidt,http://applis.cts-strasbourg.fr/CTS_FicheHorairev3/ResultatsFiches.aspx?arret=249B
GRAVI_01,420A,48.5613051205227,7.764238715171814,Gravière,http://applis.cts-strasbourg.fr/CTS_FicheHorairev3/ResultatsFiches.aspx?arret=420A
GRAVI_02,420B,48.561494172049244,7.764532417058945,Gravière,http://applis.cts-strasbourg.fr/CTS_FicheHorairev3/ResultatsFiches.aspx?arret=420B
GRUBE_01,252A,48.57865763822345,7.709596753120422,Grüber,http://applis.cts-strasbourg.fr/CTS_FicheHorairev3/ResultatsFiches.aspx?arret=252A
GRUBE_02,252B,48.57863102032696,7.710024565458298,Grüber,http://applis.cts-strasbourg.fr/CTS_FicheHorairev3/ResultatsFiches.aspx?arret=252B
GRUND_01,253A,48.4880482376082,7.721531242132187,Grundgrübe,http://applis.cts-strasbourg.fr/CTS_FicheHorairev3/ResultatsFiches.aspx?arret=253A
GRUND_02,253B,48.48831222603498,7.722191065549850,Grundgrübe,http://applis.cts-strasbourg.fr/CTS_FicheHorairev3/ResultatsFiches.aspx?arret=253B
GRUSI_01,254A,48.527583629024555,7.709991708397865,Graffenstaden Usine,http://applis.cts-strasbourg.fr/CTS_FicheHorairev3/ResultatsFiches.aspx?arret=254A
GRUSI_02,254B,48.52696813104626,7.709489464759827,Graffenstaden Usine,http://applis.cts-strasbourg.fr/CTS_FicheHorairev3/ResultatsFiches.aspx?arret=254B
GRZOI_01,255A,48.51060051295624,7.7137380838394165,Graffenstaden Z.I.,http://applis.cts-strasbourg.fr/CTS_FicheHorairev3/ResultatsFiches.aspx?arret=255A
GRZOI_02,255B,48.51020248270848,7.714422047138214,Graffenstaden Z.I.,http://applis.cts-strasbourg.fr/CTS_FicheHorairev3/ResultatsFiches.aspx?arret=255B
GUDOR_01,256A,48.55582764486603,7.640895992517471,Gustave Doré,http://applis.cts-strasbourg.fr/CTS_FicheHorairev3/ResultatsFiches.aspx?arret=256A
HALDE_01,258A,48.603157901939475,7.713260650634766,Haldenbourg,http://applis.cts-strasbourg.fr/CTS_FicheHorairev3/ResultatsFiches.aspx?arret=258A
HALDE_02,258B,48.603145486277675,7.713068872690201,Haldenbourg,http://applis.cts-strasbourg.fr/CTS_FicheHorairev3/ResultatsFiches.aspx?arret=258B
HAMAI_01,259A,48.59285983575711,7.698128968477249,Hautepierre Maillon,http://applis.cts-strasbourg.fr/CTS_FicheHorairev3/ResultatsFiches.aspx?arret=259A
HAMAI_02,259B,48.5927977447613,7.697933167219162,Hautepierre Maillon,http://applis.cts-strasbourg.fr/CTS_FicheHorairev3/ResultatsFiches.aspx?arret=259B
HAMAI_03,259C,48.593102876921094,7.698515206575394,Hautepierre Maillon,http://applis.cts-strasbourg.fr/CTS_FicheHorairev3/ResultatsFiches.aspx?arret=259C
HANGE_01,260A,48.559434981206365,7.636329531669617,Hangenbieten,http://applis.cts-strasbourg.fr/CTS_FicheHorairev3/ResultatsFiches.aspx?arret=260A
HANGE_02,260B,48.558772827029365,7.636053264141083,Hangenbieten,http://applis.cts-strasbourg.fr/CTS_FicheHorairev3/ResultatsFiches.aspx?arret=260B
HAUTE_03,262A,48.54941031759196,7.769182026386261,Hautefort,http://applis.cts-strasbourg.fr/CTS_FicheHorairev3/ResultatsFiches.aspx?arret=262A
HAUTE_04,262B,48.54999802203137,7.768751531839371,Hautefort,http://applis.cts-strasbourg.fr/CTS_FicheHorairev3/ResultatsFiches.aspx?arret=262B
HAYYY_01,263A,48.648590296688475,7.75178924202919,Hay,http://applis.cts-strasbourg.fr/CTS_FicheHorairev3/ResultatsFiches.aspx?arret=263A
HECHN_01,264A,48.612319828107424,7.776820957660675,Hechner,http://applis.cts-strasbourg.fr/CTS_FicheHorairev3/ResultatsFiches.aspx?arret=264A
HECHN_02,264B,48.61233401485736,7.776263058185577,Hechner,http://applis.cts-strasbourg.fr/CTS_FicheHorairev3/ResultatsFiches.aspx?arret=264B
HEFRE_01,265A,48.57989358044924,7.697710543870926,Henri Frenay,http://applis.cts-strasbourg.fr/CTS_FicheHorairev3/ResultatsFiches.aspx?arret=265A
HEFRE_02,265B,48.57976315581139,7.697766870260239,Henri Frenay,http://applis.cts-strasbourg.fr/CTS_FicheHorairev3/ResultatsFiches.aspx?arret=265B
HERRE_01,266A,48.58710545036021,7.6620814204216,Herrenwasser,http://applis.cts-strasbourg.fr/CTS_FicheHorairev3/ResultatsFiches.aspx?arret=266A
HERRE_02,266B,48.58701496457995,7.662424743175507,Herrenwasser,http://applis.cts-strasbourg.fr/CTS_FicheHorairev3/ResultatsFiches.aspx?arret=266B
HETZL_01,267A,48.48876109209062,7.728546559810638,Hetzlader,http://applis.cts-strasbourg.fr/CTS_FicheHorairev3/ResultatsFiches.aspx?arret=267A
HETZL_02,267B,48.48883219922002,7.728522419929504,Hetzlader,http://applis.cts-strasbourg.fr/CTS_FicheHorairev3/ResultatsFiches.aspx?arret=267B
HIESE_01,268A,48.488578879616405,7.715599536895752,Hieselrain,http://applis.cts-strasbourg.fr/CTS_FicheHorairev3/ResultatsFiches.aspx?arret=268A
HIESE_02,268B,48.48852910438763,7.715566009283066,Hieselrain,http://applis.cts-strasbourg.fr/CTS_FicheHorairev3/ResultatsFiches.aspx?arret=268B
HIRON_01,269A,48.645532497630675,7.752809822559357,Hirondelles,http://applis.cts-strasbourg.fr/CTS_FicheHorairev3/ResultatsFiches.aspx?arret=269A
HIRON_02,269B,48.646210350855156,7.753681540489197,Hirondelles,http://applis.cts-strasbourg.fr/CTS_FicheHorairev3/ResultatsFiches.aspx?arret=269B
HOCEN_01,270A,48.55873909776423,7.643083333969116,Holtzheim Centre,http://applis.cts-strasbourg.fr/CTS_FicheHorairev3/ResultatsFiches.aspx?arret=270A
HOCEN_02,270B,48.558687616210925,7.643008232116699,Holtzheim Centre,http://applis.cts-strasbourg.fr/CTS_FicheHorairev3/ResultatsFiches.aspx?arret=270B
HOCIG_01,271A,48.62320166732756,7.746812403202057,Hoenheim Cigognes,http://applis.cts-strasbourg.fr/CTS_FicheHorairev3/ResultatsFiches.aspx?arret=271A
HOCIV_01,272A,48.574177648923644,7.742255330085754,Hôpital Civil,http://applis.cts-strasbourg.fr/CTS_FicheHorairev3/ResultatsFiches.aspx?arret=272A
HOCIV_02,272B,48.57402325124734,7.743325531482696,Hôpital Civil,http://applis.cts-strasbourg.fr/CTS_FicheHorairev3/ResultatsFiches.aspx?arret=272B
HODEP_01,273A,48.578538744843925,7.739216387271881,Hôtel du Département,http://applis.cts-strasbourg.fr/CTS_FicheHorairev3/ResultatsFiches.aspx?arret=273A
HODEP_02,273B,48.57871176123645,7.739760875701904,Hôtel du Département,http://applis.cts-strasbourg.fr/CTS_FicheHorairev3/ResultatsFiches.aspx?arret=273B
HOEGA_02,274A,48.62803541610433,7.758927941322327,Hoenheim Gare,http://applis.cts-strasbourg.fr/CTS_FicheHorairev3/ResultatsFiches.aspx?arret=274A
HOEGA_03,274B,48.62815358505049,7.758928596364626,Hoenheim Gare,http://applis.cts-strasbourg.fr/CTS_FicheHorairev3/ResultatsFiches.aspx?arret=274B
HOEGA_04,274C,48.62825640663888,7.758923231946596,Hoenheim Gare,http://applis.cts-strasbourg.fr/CTS_FicheHorairev3/ResultatsFiches.aspx?arret=274C
HOFER_04,275C,48.58435088415347,7.744991183280945,Homme de Fer,http://applis.cts-strasbourg.fr/CTS_FicheHorairev3/ResultatsFiches.aspx?arret=275C
HOFER_05,275D,48.58438637066306,7.744682729244232,Homme de Fer,http://applis.cts-strasbourg.fr/CTS_FicheHorairev3/ResultatsFiches.aspx?arret=275D
HOFER_11,275A,48.58397295128048,7.744607627391815,Homme de Fer,http://applis.cts-strasbourg.fr/CTS_FicheHorairev3/ResultatsFiches.aspx?arret=275A
HOFER_12,275B,48.584130867237796,7.744567394256592,Homme de Fer,http://applis.cts-strasbourg.fr/CTS_FicheHorairev3/ResultatsFiches.aspx?arret=275B
HOGAR_06,276B,48.62789004695387,7.758619487285614,Hoenheim Gare,http://applis.cts-strasbourg.fr/CTS_FicheHorairev3/ResultatsFiches.aspx?arret=276B
HOHAU_01,277A,48.59153107179128,7.707096934318542,Hôpital de Hautepierre,http://applis.cts-strasbourg.fr/CTS_FicheHorairev3/ResultatsFiches.aspx?arret=277A
HOHAU_02,277B,48.59161090505893,7.7067455649375915,Hôpital de Hautepierre,http://applis.cts-strasbourg.fr/CTS_FicheHorairev3/ResultatsFiches.aspx?arret=277B
HOHBE_01,278A,48.58204420758358,7.701049894094467,Koenigshoffen Hohberg,http://applis.cts-strasbourg.fr/CTS_FicheHorairev3/ResultatsFiches.aspx?arret=278A
HOHBE_02,278B,48.58212554825324,7.701037054596327,Koenigshoffen Hohberg,http://applis.cts-strasbourg.fr/CTS_FicheHorairev3/ResultatsFiches.aspx?arret=278B
HOHLL_01,279A,48.67102236637417,7.704008370637894,Hohl,http://applis.cts-strasbourg.fr/CTS_FicheHorairev3/ResultatsFiches.aspx?arret=279A
HOHLL_02,279B,48.67046618097077,7.704412043094635,Hohl,http://applis.cts-strasbourg.fr/CTS_FicheHorairev3/ResultatsFiches.aspx?arret=279B
HOHWA_01,280C,48.54920346531183,7.741520404815674,Hohwart,http://applis.cts-strasbourg.fr/CTS_FicheHorairev3/ResultatsFiches.aspx?arret=280C
HOHWA_02,280D,48.54940143982909,7.741702795028686,Hohwart,http://applis.cts-strasbourg.fr/CTS_FicheHorairev3/ResultatsFiches.aspx?arret=280D
HOHWA_03,280E,48.5492691609774,7.740208804607391,Hohwart,http://applis.cts-strasbourg.fr/CTS_FicheHorairev3/ResultatsFiches.aspx?arret=280E
HOHWA_04,280F,48.54917594412929,7.740933001041412,Hohwart,http://applis.cts-strasbourg.fr/CTS_FicheHorairev3/ResultatsFiches.aspx?arret=280F
HOHWA_05,280A,48.54930555989053,7.741781920194626,Hohwart,http://applis.cts-strasbourg.fr/CTS_FicheHorairev3/ResultatsFiches.aspx?arret=280A
HOHWA_06,280B,48.54940321538178,7.741462737321854,Hohwart,http://applis.cts-strasbourg.fr/CTS_FicheHorairev3/ResultatsFiches.aspx?arret=280B
HOMAI_01,281A,48.621569629633086,7.755202353000641,Hoenheim Mairie,http://applis.cts-strasbourg.fr/CTS_FicheHorairev3/ResultatsFiches.aspx?arret=281A
HOMAI_02,281B,48.621364845511785,7.755302935838699,Hoenheim Mairie,http://applis.cts-strasbourg.fr/CTS_FicheHorairev3/ResultatsFiches.aspx?arret=281B
HONAU_01,282A,48.6403388649371,7.808444201946258,Honau,http://applis.cts-strasbourg.fr/CTS_FicheHorairev3/ResultatsFiches.aspx?arret=282A
HONAU_02,282B,48.64056749882008,7.80854344367981,Honau,http://applis.cts-strasbourg.fr/CTS_FicheHorairev3/ResultatsFiches.aspx?arret=282B
HOOUE_01,283A,48.558421331478115,7.633931636810303,Holtzheim Ouest,http://applis.cts-strasbourg.fr/CTS_FicheHorairev3/ResultatsFiches.aspx?arret=283A
HOPOL_01,284A,48.574523710968066,7.748866975307465,Hôtel de Police,http://applis.cts-strasbourg.fr/CTS_FicheHorairev3/ResultatsFiches.aspx?arret=284A
HOPOL_02,284B,48.574688755108866,7.750374376773834,Hôtel de Police,http://applis.cts-strasbourg.fr/CTS_FicheHorairev3/ResultatsFiches.aspx?arret=284B
HORAC_01,285A,48.583201107760594,7.699543833732605,Horace,http://applis.cts-strasbourg.fr/CTS_FicheHorairev3/ResultatsFiches.aspx?arret=285A
HORAC_02,285B,48.582759288579105,7.699291706085205,Horace,http://applis.cts-strasbourg.fr/CTS_FicheHorairev3/ResultatsFiches.aspx?arret=285B
ICARE_01,288A,48.5434307915573,7.655066102743149,Icare,http://applis.cts-strasbourg.fr/CTS_FicheHorairev3/ResultatsFiches.aspx?arret=288A
ICARE_02,288B,48.54350359775606,7.654954791069031,Icare,http://applis.cts-strasbourg.fr/CTS_FicheHorairev3/ResultatsFiches.aspx?arret=288B
ILDFR_01,289A,48.549407654263284,7.750124931335449,Ile de France,http://applis.cts-strasbourg.fr/CTS_FicheHorairev3/ResultatsFiches.aspx?arret=289A
ILDFR_02,289B,48.54987107134824,7.75092288851738,Ile de France,http://applis.cts-strasbourg.fr/CTS_FicheHorairev3/ResultatsFiches.aspx?arret=289B
ILLIX_01,290C,48.529910108276496,7.724711000919342,Illkirch Lixenbuhl,http://applis.cts-strasbourg.fr/CTS_FicheHorairev3/ResultatsFiches.aspx?arret=290C
ILLIX_02,290A,48.53000957742514,7.72450715303421,Illkirch Lixenbuhl,http://applis.cts-strasbourg.fr/CTS_FicheHorairev3/ResultatsFiches.aspx?arret=290A
ILLIX_03,290B,48.52998471015628,7.724171876907349,Illkirch Lixenbuhl,http://applis.cts-strasbourg.fr/CTS_FicheHorairev3/ResultatsFiches.aspx?arret=290B
ILLIX_04,290D,48.52980886269239,7.724788784980774,Illkirch Lixenbuhl,http://applis.cts-strasbourg.fr/CTS_FicheHorairev3/ResultatsFiches.aspx?arret=290D
ILMAI_01,291A,48.529501572223864,7.711029052734375,Illkirch Mairie,http://applis.cts-strasbourg.fr/CTS_FicheHorairev3/ResultatsFiches.aspx?arret=291A
ILMAI_02,291B,48.52925822526966,7.711073309183121,Illkirch Mairie,http://applis.cts-strasbourg.fr/CTS_FicheHorairev3/ResultatsFiches.aspx?arret=291B
ILMAI_03,291C,48.52920841819323,7.71103170496292,Illkirch Mairie,http://applis.cts-strasbourg.fr/CTS_FicheHorairev3/ResultatsFiches.aspx?arret=291C
ILMAI_07,291D,48.53072006566182,7.710874825716019,Illkirch Mairie,http://applis.cts-strasbourg.fr/CTS_FicheHorairev3/ResultatsFiches.aspx?arret=291D
ILMAI_08,291E,48.53056020667772,7.710839956998825,Illkirch Mairie,http://applis.cts-strasbourg.fr/CTS_FicheHorairev3/ResultatsFiches.aspx?arret=291E
INGOL_01,293A,48.54557941823898,7.772178053855896,Ingold,http://applis.cts-strasbourg.fr/CTS_FicheHorairev3/ResultatsFiches.aspx?arret=293A
INGOL_02,293B,48.54559007235889,7.772243097424507,Ingold,http://applis.cts-strasbourg.fr/CTS_FicheHorairev3/ResultatsFiches.aspx?arret=293B
IUTPA_01,294A,48.60643464312134,7.709390223026276,I.U.T. Pasteur,http://applis.cts-strasbourg.fr/CTS_FicheHorairev3/ResultatsFiches.aspx?arret=294A
IUTPA_02,294B,48.60652864121999,7.709569931030273,I.U.T. Pasteur,http://applis.cts-strasbourg.fr/CTS_FicheHorairev3/ResultatsFiches.aspx?arret=294B
JACOB_01,295A,48.59247664439394,7.717262506484985,Jacob,http://applis.cts-strasbourg.fr/CTS_FicheHorairev3/ResultatsFiches.aspx?arret=295A
JACOB_02,295B,48.59234093008927,7.717599123716354,Jacob,http://applis.cts-strasbourg.fr/CTS_FicheHorairev3/ResultatsFiches.aspx?arret=295B
JARDI_01,296A,48.586946656579705,7.67089918255806,Jardins,http://applis.cts-strasbourg.fr/CTS_FicheHorairev3/ResultatsFiches.aspx?arret=296A
JARDI_02,296B,48.586886332554656,7.670892477035522,Jardins,http://applis.cts-strasbourg.fr/CTS_FicheHorairev3/ResultatsFiches.aspx?arret=296B
JAROS_01,297A,48.5806140152424,7.690763622522354,Jardin des Roses,http://applis.cts-strasbourg.fr/CTS_FicheHorairev3/ResultatsFiches.aspx?arret=297A
JAROS_02,297B,48.58052795399064,7.690437734127045,Jardin des Roses,http://applis.cts-strasbourg.fr/CTS_FicheHorairev3/ResultatsFiches.aspx?arret=297B
JAURE_01,298A,48.567207987570555,7.77221292257309,Jean Jaurès,http://applis.cts-strasbourg.fr/CTS_FicheHorairev3/ResultatsFiches.aspx?arret=298A
JAURE_02,298B,48.5673127082056,7.771893739700317,Jean Jaurès,http://applis.cts-strasbourg.fr/CTS_FicheHorairev3/ResultatsFiches.aspx?arret=298B
JAVIG_01,299A,48.58250555131932,7.682774662971497,Jardin des Vignes,http://applis.cts-strasbourg.fr/CTS_FicheHorairev3/ResultatsFiches.aspx?arret=299A
JAVIG_02,299B,48.58235295347281,7.682932913303375,Jardin des Vignes,http://applis.cts-strasbourg.fr/CTS_FicheHorairev3/ResultatsFiches.aspx?arret=299B
JEJAU_01,298C,48.566829926524214,7.773473560810089,Jean Jaurès,http://applis.cts-strasbourg.fr/CTS_FicheHorairev3/ResultatsFiches.aspx?arret=298C
JEJAU_02,298D,48.566414588595585,7.773127555847168,Jean Jaurès,http://applis.cts-strasbourg.fr/CTS_FicheHorairev3/ResultatsFiches.aspx?arret=298D
JEJAU_03,298A,48.567138765336836,7.772132456302643,Jean Jaurès,http://applis.cts-strasbourg.fr/CTS_FicheHorairev3/ResultatsFiches.aspx?arret=298A
JEMON_01,300A,48.58676213580574,7.687318325042725,Jean Monnet,http://applis.cts-strasbourg.fr/CTS_FicheHorairev3/ResultatsFiches.aspx?arret=300A
JEMON_02,300B,48.587566747898045,7.687469869852066,Jean Monnet,http://applis.cts-strasbourg.fr/CTS_FicheHorairev3/ResultatsFiches.aspx?arret=300B
JEMON_03,300C,48.58714448339188,7.686773836612701,Jean Monnet,http://applis.cts-strasbourg.fr/CTS_FicheHorairev3/ResultatsFiches.aspx?arret=300C
JESUI_03,308A,48.539094194442995,7.76110053062439,Jésuites,http://applis.cts-strasbourg.fr/CTS_FicheHorairev3/ResultatsFiches.aspx?arret=308A
JESUI_04,308B,48.538936137817686,7.760936915874481,Jésuites,http://applis.cts-strasbourg.fr/CTS_FicheHorairev3/ResultatsFiches.aspx?arret=308B
JPERR_01,309A,48.58790118597988,7.683442533016205,Jean Perrin,http://applis.cts-strasbourg.fr/CTS_FicheHorairev3/ResultatsFiches.aspx?arret=309A
JPERR_02,309B,48.58777876593087,7.683517634868622,Jean Perrin,http://applis.cts-strasbourg.fr/CTS_FicheHorairev3/ResultatsFiches.aspx?arret=309B
KARIN_01,310A,48.59634834012558,7.697363197803497,Karine,http://applis.cts-strasbourg.fr/CTS_FicheHorairev3/ResultatsFiches.aspx?arret=310A
KARIN_02,310B,48.59650887826144,7.696856260299683,Karine,http://applis.cts-strasbourg.fr/CTS_FicheHorairev3/ResultatsFiches.aspx?arret=310B
KASTL_01,311A,48.548754246718495,7.683852910995483,Kastler,http://applis.cts-strasbourg.fr/CTS_FicheHorairev3/ResultatsFiches.aspx?arret=311A
KASTL_02,311B,48.54883681090924,7.684323638677597,Kastler,http://applis.cts-strasbourg.fr/CTS_FicheHorairev3/ResultatsFiches.aspx?arret=311B
KEBAH_01,313A,48.575021503754606,7.807234525680542,Kehl Bahnhof,http://applis.cts-strasbourg.fr/CTS_FicheHorairev3/ResultatsFiches.aspx?arret=313A
KEBAH_02,313B,48.57526640535881,7.807100415229797,Kehl Bahnhof,http://applis.cts-strasbourg.fr/CTS_FicheHorairev3/ResultatsFiches.aspx?arret=313B
KELAG_01,314A,48.57541015140005,7.813144773244858,Kehl Am Läger,http://applis.cts-strasbourg.fr/CTS_FicheHorairev3/ResultatsFiches.aspx?arret=314A
KEMAR_01,315A,48.57194682289671,7.812032997608185,Kehl Stadthalle,http://applis.cts-strasbourg.fr/CTS_FicheHorairev3/ResultatsFiches.aspx?arret=315A
KIBIT_01,316E,48.555094429401954,7.767189145088196,Kibitzenau,http://applis.cts-strasbourg.fr/CTS_FicheHorairev3/ResultatsFiches.aspx?arret=316E
KIBIT_02,316F,48.555312797346176,7.767256200313568,Kibitzenau,http://applis.cts-strasbourg.fr/CTS_FicheHorairev3/ResultatsFiches.aspx?arret=316F
KIBIT_04,316B,48.55479261849656,7.767274975776672,Kibitzenau,http://applis.cts-strasbourg.fr/CTS_FicheHorairev3/ResultatsFiches.aspx?arret=316B
KIBIT_05,316G,48.554963053111486,7.76634156703949,Kibitzenau,http://applis.cts-strasbourg.fr/CTS_FicheHorairev3/ResultatsFiches.aspx?arret=316G
KIBIT_06,316C,48.55493109666491,7.766507863998413,Kibitzenau,http://applis.cts-strasbourg.fr/CTS_FicheHorairev3/ResultatsFiches.aspx?arret=316C
KIBIT_07,316D,48.55477308949364,7.766998708248138,Kibitzenau (parking),http://applis.cts-strasbourg.fr/CTS_FicheHorairev3/ResultatsFiches.aspx?arret=316D
KIEFE_01,317A,48.54744385507518,7.770236134529114,Kiefer,http://applis.cts-strasbourg.fr/CTS_FicheHorairev3/ResultatsFiches.aspx?arret=317A
KIEFE_02,317B,48.54757880212329,7.770045697689056,Kiefer,http://applis.cts-strasbourg.fr/CTS_FicheHorairev3/ResultatsFiches.aspx?arret=317B
KLEBS_01,318A,48.5443595066792,7.773438692092895,Klebsau,http://applis.cts-strasbourg.fr/CTS_FicheHorairev3/ResultatsFiches.aspx?arret=318A
KLEBS_02,318B,48.54418015766788,7.773366272449493,Klebsau,http://applis.cts-strasbourg.fr/CTS_FicheHorairev3/ResultatsFiches.aspx?arret=318B
KRIMM_03,319A,48.56299590837142,7.752632796764374,Krimmeri,http://applis.cts-strasbourg.fr/CTS_FicheHorairev3/ResultatsFiches.aspx?arret=319A
KRIMM_04,319B,48.563216017277334,7.752654254436493,Krimmeri,http://applis.cts-strasbourg.fr/CTS_FicheHorairev3/ResultatsFiches.aspx?arret=319B
KRUTE_01,320A,48.579961897982365,7.757948935031891,Krutenau,http://applis.cts-strasbourg.fr/CTS_FicheHorairev3/ResultatsFiches.aspx?arret=320A
KRUTE_02,320B,48.58017660962825,7.757711559534073,Krutenau,http://applis.cts-strasbourg.fr/CTS_FicheHorairev3/ResultatsFiches.aspx?arret=320B
LAEGL_01,321A,48.65088330280838,7.7010029554367065,Lampertheim Eglise,http://applis.cts-strasbourg.fr/CTS_FicheHorairev3/ResultatsFiches.aspx?arret=321A
LAEGL_02,321B,48.65092671652431,7.700951993465424,Lampertheim Eglise,http://applis.cts-strasbourg.fr/CTS_FicheHorairev3/ResultatsFiches.aspx?arret=321B
LAGRR_01,322A,48.58134952243737,7.74629607796669,Langstross - Grand'Rue,http://applis.cts-strasbourg.fr/CTS_FicheHorairev3/ResultatsFiches.aspx?arret=322A
LAGRR_02,322B,48.58161036319022,7.746313512325287,Langstross - Grand'Rue,http://applis.cts-strasbourg.fr/CTS_FicheHorairev3/ResultatsFiches.aspx?arret=322B
LAITE_01,323A,48.57552993945556,7.730834484100342,Laiterie,http://applis.cts-strasbourg.fr/CTS_FicheHorairev3/ResultatsFiches.aspx?arret=323A
LAITE_02,323B,48.57601086345824,7.732552438974380,Laiterie,http://applis.cts-strasbourg.fr/CTS_FicheHorairev3/ResultatsFiches.aspx?arret=323B
LAITE_03,323C,48.57598956802724,7.731608301401138,Laiterie,http://applis.cts-strasbourg.fr/CTS_FicheHorairev3/ResultatsFiches.aspx?arret=323C
LAITE_04,323D,48.57586445718902,7.731369584798813,Laiterie,http://applis.cts-strasbourg.fr/CTS_FicheHorairev3/ResultatsFiches.aspx?arret=323D
LALOR_01,324A,48.65152741675705,7.691648751497269,Lampertheim Lorraine,http://applis.cts-strasbourg.fr/CTS_FicheHorairev3/ResultatsFiches.aspx?arret=324A
LAMAR_01,325A,48.61111837325849,7.738218605518341,Lamartine,http://applis.cts-strasbourg.fr/CTS_FicheHorairev3/ResultatsFiches.aspx?arret=325A
LAMAR_02,325B,48.610988029205345,7.737597674131393,Lamartine,http://applis.cts-strasbourg.fr/CTS_FicheHorairev3/ResultatsFiches.aspx?arret=325B
LAMEY_01,326A,48.58838554065726,7.755508124828339,Lamey,http://applis.cts-strasbourg.fr/CTS_FicheHorairev3/ResultatsFiches.aspx?arret=326A
LAMEY_02,326B,48.58828973460588,7.756298035383224,Lamey,http://applis.cts-strasbourg.fr/CTS_FicheHorairev3/ResultatsFiches.aspx?arret=326B
LAMPR_01,327A,48.60195312510757,7.792598381638527,Lamproie,http://applis.cts-strasbourg.fr/CTS_FicheHorairev3/ResultatsFiches.aspx?arret=327A
LAMPR_02,327B,48.60177087627547,7.792770713567734,Lamproie,http://applis.cts-strasbourg.fr/CTS_FicheHorairev3/ResultatsFiches.aspx?arret=327B
LAMRI_01,328A,48.651090625114875,7.699309140443802,Lampertheim Mairie,http://applis.cts-strasbourg.fr/CTS_FicheHorairev3/ResultatsFiches.aspx?arret=328A
LAMRI_02,328B,48.65066977766147,7.700076252222061,Lampertheim Mairie,http://applis.cts-strasbourg.fr/CTS_FicheHorairev3/ResultatsFiches.aspx?arret=328B
LANDS_05,329A,48.56934051842399,7.764091193675995,Landsberg,http://applis.cts-strasbourg.fr/CTS_FicheHorairev3/ResultatsFiches.aspx?arret=329A
LANDS_06,329C,48.56989249469677,7.762311547994614,Landsberg,http://applis.cts-strasbourg.fr/CTS_FicheHorairev3/ResultatsFiches.aspx?arret=329C
LANDS_07,329B,48.57022616231908,7.763544023036957,Landsberg,http://applis.cts-strasbourg.fr/CTS_FicheHorairev3/ResultatsFiches.aspx?arret=329B
LAROC_01,330A,48.535304251322586,7.785454988479614,La Rochelle,http://applis.cts-strasbourg.fr/CTS_FicheHorairev3/ResultatsFiches.aspx?arret=330A
LAROC_02,330B,48.53626863583322,7.786884605884552,La Rochelle,http://applis.cts-strasbourg.fr/CTS_FicheHorairev3/ResultatsFiches.aspx?arret=330B
LASOU_01,331A,48.62848215770188,7.729227840900421,La Souffel,http://applis.cts-strasbourg.fr/CTS_FicheHorairev3/ResultatsFiches.aspx?arret=331A
LASOU_02,331B,48.6288260751263,7.729238569736481,La Souffel,http://applis.cts-strasbourg.fr/CTS_FicheHorairev3/ResultatsFiches.aspx?arret=331B
LAUTE_01,332A,48.60957284354205,7.742180228233337,Lauterbourg,http://applis.cts-strasbourg.fr/CTS_FicheHorairev3/ResultatsFiches.aspx?arret=332A
LAUTE_02,332B,48.60949037849287,7.742358595132828,Lauterbourg,http://applis.cts-strasbourg.fr/CTS_FicheHorairev3/ResultatsFiches.aspx?arret=332B
LAVIG_01,333A,48.53405389856845,7.695761919021606,La Vigie,http://applis.cts-strasbourg.fr/CTS_FicheHorairev3/ResultatsFiches.aspx?arret=333A
LAVIG_02,333B,48.53364006763132,7.694187462329864,La Vigie,http://applis.cts-strasbourg.fr/CTS_FicheHorairev3/ResultatsFiches.aspx?arret=333B
LAZAR_01,334A,48.56351777793021,7.761450558900833,Lazaret,http://applis.cts-strasbourg.fr/CTS_FicheHorairev3/ResultatsFiches.aspx?arret=334A
LAZAR_02,334B,48.56322578015015,7.761944085359573,Lazaret,http://applis.cts-strasbourg.fr/CTS_FicheHorairev3/ResultatsFiches.aspx?arret=334B
LECLE_01,335A,48.534343400603795,7.734434008598328,Leclerc,http://applis.cts-strasbourg.fr/CTS_FicheHorairev3/ResultatsFiches.aspx?arret=335A
LECLE_02,335B,48.534535216991514,7.734476923942566,Leclerc,http://applis.cts-strasbourg.fr/CTS_FicheHorairev3/ResultatsFiches.aspx?arret=335B
LEFEB_01,336A,48.55951575277157,7.745819985866547,Lefèbvre,http://applis.cts-strasbourg.fr/CTS_FicheHorairev3/ResultatsFiches.aspx?arret=336A
LEFEB_02,336B,48.55966309397585,7.745735496282577,Lefèbvre,http://applis.cts-strasbourg.fr/CTS_FicheHorairev3/ResultatsFiches.aspx?arret=336B
LEMAR_01,338C,48.60928782699666,7.765869498251869,Le Marais,http://applis.cts-strasbourg.fr/CTS_FicheHorairev3/ResultatsFiches.aspx?arret=338C
LEMAR_02,338D,48.60938782699666,7.765869498251869,Le Marais,http://applis.cts-strasbourg.fr/CTS_FicheHorairev3/ResultatsFiches.aspx?arret=338D
LEMAR_03,338A,48.60998782690666,7.765869498252869,Le Marais,http://applis.cts-strasbourg.fr/CTS_FicheHorairev3/ResultatsFiches.aspx?arret=338A
LEMAR_04,338B,48.60985304635878,7.765563726425171,Le Marais,http://applis.cts-strasbourg.fr/CTS_FicheHorairev3/ResultatsFiches.aspx?arret=338B
LERCH_01,339A,48.61990119108711,7.731299847364426,Lerchenberg,http://applis.cts-strasbourg.fr/CTS_FicheHorairev3/ResultatsFiches.aspx?arret=339A
LERCH_02,339B,48.61969462711184,7.731517106294632,Lerchenberg,http://applis.cts-strasbourg.fr/CTS_FicheHorairev3/ResultatsFiches.aspx?arret=339B
LERIE_01,340A,48.62145970232927,7.767627686262131,Le Ried,http://applis.cts-strasbourg.fr/CTS_FicheHorairev3/ResultatsFiches.aspx?arret=340A
LERIE_02,340B,48.62133381754212,7.767887860536575,Le Ried,http://applis.cts-strasbourg.fr/CTS_FicheHorairev3/ResultatsFiches.aspx?arret=340B
LHPPA_01,341A,48.58588920147314,7.743760049343109,Les Halles - Pont de Paris,http://applis.cts-strasbourg.fr/CTS_FicheHorairev3/ResultatsFiches.aspx?arret=341A
LHPPA_02,341B,48.58525134662904,7.743493169546127,Les Halles - Pont de Paris,http://applis.cts-strasbourg.fr/CTS_FicheHorairev3/ResultatsFiches.aspx?arret=341B
LHSEB_01,342A,48.58623119126272,7.743013054132461,Les Halles Sébastopol,http://applis.cts-strasbourg.fr/CTS_FicheHorairev3/ResultatsFiches.aspx?arret=342A
LIBER_01,343A,48.585995657686844,7.758125960826874,Liberté,http://applis.cts-strasbourg.fr/CTS_FicheHorairev3/ResultatsFiches.aspx?arret=343A
LIBER_02,343B,48.586174858473456,7.757966369390488,Liberté,http://applis.cts-strasbourg.fr/CTS_FicheHorairev3/ResultatsFiches.aspx?arret=343B
LICEN_01,344A,48.49033253640352,7.664971500635147,Lipsheim Centre,http://applis.cts-strasbourg.fr/CTS_FicheHorairev3/ResultatsFiches.aspx?arret=344A
LIEST_01,345A,48.491641739868456,7.669957727193832,Lipsheim Est,http://applis.cts-strasbourg.fr/CTS_FicheHorairev3/ResultatsFiches.aspx?arret=345A
LIEST_02,345B,48.491289778104324,7.6697055995464325,Lipsheim Est,http://applis.cts-strasbourg.fr/CTS_FicheHorairev3/ResultatsFiches.aspx?arret=345B
LIGAR_01,346A,48.49075472043954,7.674905061721802,Lipsheim Gare,http://applis.cts-strasbourg.fr/CTS_FicheHorairev3/ResultatsFiches.aspx?arret=346A
LIGAR_02,346B,48.49063028761533,7.674509435892105,Lipsheim Gare,http://applis.cts-strasbourg.fr/CTS_FicheHorairev3/ResultatsFiches.aspx?arret=346B
LIGAR_03,346C,48.4914124317237,7.672697603702545,Lipsheim Gare (départ),http://applis.cts-strasbourg.fr/CTS_FicheHorairev3/ResultatsFiches.aspx?arret=346C
LITIE_01,348A,48.55378952814019,7.689423859119415,Lingolsheim Tiergaertel,http://applis.cts-strasbourg.fr/CTS_FicheHorairev3/ResultatsFiches.aspx?arret=348A
LNCEN_01,350A,48.5581639215707,7.685198038816452,Lingolsheim Centre,http://applis.cts-strasbourg.fr/CTS_FicheHorairev3/ResultatsFiches.aspx?arret=350A
LNCEN_02,350B,48.55846571236427,7.686151564121246,Lingolsheim Centre,http://applis.cts-strasbourg.fr/CTS_FicheHorairev3/ResultatsFiches.aspx?arret=350B
LNCHA_01,351A,48.55372206294228,7.679820209741592,Lingolsheim Château,http://applis.cts-strasbourg.fr/CTS_FicheHorairev3/ResultatsFiches.aspx?arret=351A
LNGAR_01,352A,48.55959741180526,7.678138464689255,Lingolsheim Gare,http://applis.cts-strasbourg.fr/CTS_FicheHorairev3/ResultatsFiches.aspx?arret=352A
LNGAR_02,352B,48.55972522568034,7.677893042564392,Lingolsheim Gare,http://applis.cts-strasbourg.fr/CTS_FicheHorairev3/ResultatsFiches.aspx?arret=352B
LNMAI_01,353A,48.55735972907697,7.682802826166153,Lingolsheim Mairie,http://applis.cts-strasbourg.fr/CTS_FicheHorairev3/ResultatsFiches.aspx?arret=353A
LNMAI_02,353B,48.557434290508134,7.682789415121078,Lingolsheim Mairie,http://applis.cts-strasbourg.fr/CTS_FicheHorairev3/ResultatsFiches.aspx?arret=353B
LOEBB_01,354A,48.47578948395397,7.70960345864296,Loeb,http://applis.cts-strasbourg.fr/CTS_FicheHorairev3/ResultatsFiches.aspx?arret=354A
LOEBB_02,354B,48.47570502251121,7.709995061159134,Loeb,http://applis.cts-strasbourg.fr/CTS_FicheHorairev3/ResultatsFiches.aspx?arret=354B
LOLOU_01,356A,48.549463584136646,7.758013308048248,Louis Loucheur,http://applis.cts-strasbourg.fr/CTS_FicheHorairev3/ResultatsFiches.aspx?arret=356A
LOLOU_02,356B,48.54940854203952,7.758140712976456,Louis Loucheur,http://applis.cts-strasbourg.fr/CTS_FicheHorairev3/ResultatsFiches.aspx?arret=356B
LWAEG_01,359A,48.66281180861147,7.822248190641403,La Wantzenau Eglise,http://applis.cts-strasbourg.fr/CTS_FicheHorairev3/ResultatsFiches.aspx?arret=359A
LWAEG_02,359B,48.66256910294668,7.822048366069794,La Wantzenau Eglise,http://applis.cts-strasbourg.fr/CTS_FicheHorairev3/ResultatsFiches.aspx?arret=359B
LWAGO_01,361A,48.67590643787693,7.815439403057098,La Wantzenau le Golf,http://applis.cts-strasbourg.fr/CTS_FicheHorairev3/ResultatsFiches.aspx?arret=361A
LWAMA_01,362A,48.65802657108939,7.827939838171005,La Wantzenau Mairie,http://applis.cts-strasbourg.fr/CTS_FicheHorairev3/ResultatsFiches.aspx?arret=362A
LWATI_01,364A,48.66071068288047,7.823604047298431,La Wantzenau Le Tilleul,http://applis.cts-strasbourg.fr/CTS_FicheHorairev3/ResultatsFiches.aspx?arret=364A
LWATI_02,364B,48.66077889111992,7.823410928249359,La Wantzenau Le Tilleul,http://applis.cts-strasbourg.fr/CTS_FicheHorairev3/ResultatsFiches.aspx?arret=364B
LWECO_01,358A,48.659713237562585,7.825284451246262,La Wantzenau Ecole,http://applis.cts-strasbourg.fr/CTS_FicheHorairev3/ResultatsFiches.aspx?arret=358A
LWECO_02,358B,48.65933764024925,7.825590223073959,La Wantzenau Ecole,http://applis.cts-strasbourg.fr/CTS_FicheHorairev3/ResultatsFiches.aspx?arret=358B
LWGAR_01,360A,48.66449565770152,7.823771685361862,La Wantzenau Gare,http://applis.cts-strasbourg.fr/CTS_FicheHorairev3/ResultatsFiches.aspx?arret=360A
LYCOU_01,366A,48.55867252678018,7.748078405857086,Lycée Couffignal,http://applis.cts-strasbourg.fr/CTS_FicheHorairev3/ResultatsFiches.aspx?arret=366A
LYCOU_02,366B,48.558747086276426,7.748188376426697,Lycée Couffignal,http://applis.cts-strasbourg.fr/CTS_FicheHorairev3/ResultatsFiches.aspx?arret=366B
LYCOU_03,366C,48.55875329956282,7.749078869819641,Lycée Couffignal,http://applis.cts-strasbourg.fr/CTS_FicheHorairev3/ResultatsFiches.aspx?arret=366C
LYCOU_04,366D,48.55889886776849,7.74928942322731,Lycée Couffignal,http://applis.cts-strasbourg.fr/CTS_FicheHorairev3/ResultatsFiches.aspx?arret=366D
LYJMO_01,367A,48.56440884887995,7.76939257979393,Lycée Jean Monnet,http://applis.cts-strasbourg.fr/CTS_FicheHorairev3/ResultatsFiches.aspx?arret=367A
LYJMO_02,367B,48.56449493757232,7.769611179828644,Lycée Jean Monnet,http://applis.cts-strasbourg.fr/CTS_FicheHorairev3/ResultatsFiches.aspx?arret=367B
LYKLE_01,368A,48.59336188300614,7.757617682218552,Lycée Kléber,http://applis.cts-strasbourg.fr/CTS_FicheHorairev3/ResultatsFiches.aspx?arret=368A
LYKLE_02,368B,48.593453244424836,7.758140712976456,Lycée Kléber,http://applis.cts-strasbourg.fr/CTS_FicheHorairev3/ResultatsFiches.aspx?arret=368B
LYKLE_05,368C,48.59418767778864,7.757804095745087,Lycée Kléber,http://applis.cts-strasbourg.fr/CTS_FicheHorairev3/ResultatsFiches.aspx?arret=368C
LYKLE_06,368D,48.593963268726824,7.75777593255043,Lycée Kléber,http://applis.cts-strasbourg.fr/CTS_FicheHorairev3/ResultatsFiches.aspx?arret=368D
LYMAB_01,369A,48.616615571174975,7.7680085599422455,Lycée Marc Bloch,http://applis.cts-strasbourg.fr/CTS_FicheHorairev3/ResultatsFiches.aspx?arret=369A
LYMAB_02,369B,48.616416086555695,7.767851650714874,Lycée Marc Bloch,http://applis.cts-strasbourg.fr/CTS_FicheHorairev3/ResultatsFiches.aspx?arret=369B
LYMAR_01,371A,48.58582798904874,7.695450782775879,Lycée Marcel Rudloff,http://applis.cts-strasbourg.fr/CTS_FicheHorairev3/ResultatsFiches.aspx?arret=371A
LYMAR_02,371B,48.585317882628644,7.69454151391983,Lycée Marcel Rudloff,http://applis.cts-strasbourg.fr/CTS_FicheHorairev3/ResultatsFiches.aspx?arret=371B
LYOPA_01,372A,48.57489639052072,7.734353542327881,Lyon-Pasteur,http://applis.cts-strasbourg.fr/CTS_FicheHorairev3/ResultatsFiches.aspx?arret=372A
LYPAS_01,373A,48.574507738925845,7.738545835018158,Lycée Pasteur,http://applis.cts-strasbourg.fr/CTS_FicheHorairev3/ResultatsFiches.aspx?arret=373A
LYPAS_02,373B,48.574326722094725,7.738781869411468,Lycée Pasteur,http://applis.cts-strasbourg.fr/CTS_FicheHorairev3/ResultatsFiches.aspx?arret=373B
MAALE_01,374A,48.56167523482067,7.681339681148529,Maxime Alexandre,http://applis.cts-strasbourg.fr/CTS_FicheHorairev3/ResultatsFiches.aspx?arret=374A
MAALE_02,374B,48.561739139173504,7.682459503412247,Maxime Alexandre,http://applis.cts-strasbourg.fr/CTS_FicheHorairev3/ResultatsFiches.aspx?arret=374B
MAARM_01,375A,48.57831337901388,7.734030336141586,Musée d'Art Moderne,http://applis.cts-strasbourg.fr/CTS_FicheHorairev3/ResultatsFiches.aspx?arret=375A
MAARM_02,375B,48.57827167735249,7.734028995037079,Musée d'Art Moderne,http://applis.cts-strasbourg.fr/CTS_FicheHorairev3/ResultatsFiches.aspx?arret=375B
MAARM_03,375E,48.5782122302438,7.733809053897858,Musée d'Art Moderne,http://applis.cts-strasbourg.fr/CTS_FicheHorairev3/ResultatsFiches.aspx?arret=375E
MAARM_04,375C,48.57798597568332,7.734148353338242,Musée d'Art Moderne,http://applis.cts-strasbourg.fr/CTS_FicheHorairev3/ResultatsFiches.aspx?arret=375C
MAARM_05,375D,48.577811182251104,7.733866721391678,Musée d'Art Moderne,http://applis.cts-strasbourg.fr/CTS_FicheHorairev3/ResultatsFiches.aspx?arret=375D
MALRA_01,379A,48.52135503052757,7.7203430235385895,Malraux,http://applis.cts-strasbourg.fr/CTS_FicheHorairev3/ResultatsFiches.aspx?arret=379A
MALRA_02,379B,48.52169523614618,7.720596492290497,Malraux,http://applis.cts-strasbourg.fr/CTS_FicheHorairev3/ResultatsFiches.aspx?arret=379B
MALTE_01,380A,48.613632085608536,7.756011039018631,Malterie,http://applis.cts-strasbourg.fr/CTS_FicheHorairev3/ResultatsFiches.aspx?arret=380A
MALTE_02,380B,48.61364627198976,7.756406664848328,Malterie,http://applis.cts-strasbourg.fr/CTS_FicheHorairev3/ResultatsFiches.aspx?arret=380B
MAPAG_01,381A,48.60243246743661,7.702702134847641,Marcel Pagnol,http://applis.cts-strasbourg.fr/CTS_FicheHorairev3/ResultatsFiches.aspx?arret=381A
MAPAG_02,381B,48.6024741491633,7.702838927507400,Marcel Pagnol,http://applis.cts-strasbourg.fr/CTS_FicheHorairev3/ResultatsFiches.aspx?arret=381B
MARAI_01,382,48.60982733160812,7.765775620937347,Le Marais,http://applis.cts-strasbourg.fr/CTS_FicheHorairev3/ResultatsFiches.aspx?arret=382
MARAI_02,382,48.61004546321538,7.765668332576752,Le Marais,http://applis.cts-strasbourg.fr/CTS_FicheHorairev3/ResultatsFiches.aspx?arret=382
MARGU_01,384A,48.61420574422106,7.760118842124939,Marguerite,http://applis.cts-strasbourg.fr/CTS_FicheHorairev3/ResultatsFiches.aspx?arret=384A
MARGU_02,384B,48.614229683465055,7.759704440832138,Marguerite,http://applis.cts-strasbourg.fr/CTS_FicheHorairev3/ResultatsFiches.aspx?arret=384B
MARNE_01,385A,48.58368994335846,7.773158401250839,Marne,http://applis.cts-strasbourg.fr/CTS_FicheHorairev3/ResultatsFiches.aspx?arret=385A
MARNE_02,385B,48.58380527593178,7.772867381572723,Marne,http://applis.cts-strasbourg.fr/CTS_FicheHorairev3/ResultatsFiches.aspx?arret=385B
MAROU_01,386A,48.607290374075085,7.74948924779892,Maison Rouge,http://applis.cts-strasbourg.fr/CTS_FicheHorairev3/ResultatsFiches.aspx?arret=386A
MAROU_02,386B,48.60788538674083,7.749938517808914,Maison Rouge,http://applis.cts-strasbourg.fr/CTS_FicheHorairev3/ResultatsFiches.aspx?arret=386B
MARRO_01,386C,48.60706868350984,7.748880386352539,Maison Rouge,http://applis.cts-strasbourg.fr/CTS_FicheHorairev3/ResultatsFiches.aspx?arret=386C
MARRO_02,386D,48.60740476602613,7.74865910410881,Maison Rouge,http://applis.cts-strasbourg.fr/CTS_FicheHorairev3/ResultatsFiches.aspx?arret=386D
MASCH_01,387A,48.613203832348766,7.764087170362472,Maires Schaub,http://applis.cts-strasbourg.fr/CTS_FicheHorairev3/ResultatsFiches.aspx?arret=387A
MASCH_02,387B,48.61302650074295,7.764626294374466,Maires Schaub,http://applis.cts-strasbourg.fr/CTS_FicheHorairev3/ResultatsFiches.aspx?arret=387B
MASEG_01,388A,48.615562283478425,7.73231104016304,Marc Seguin,http://applis.cts-strasbourg.fr/CTS_FicheHorairev3/ResultatsFiches.aspx?arret=388A
MASEG_02,388B,48.61676097280083,7.73212194442749,Marc Seguin,http://applis.cts-strasbourg.fr/CTS_FicheHorairev3/ResultatsFiches.aspx?arret=388B
MASEG_03,388D,48.61618113699315,7.732808589935303,Marc Seguin,http://applis.cts-strasbourg.fr/CTS_FicheHorairev3/ResultatsFiches.aspx?arret=388D
MASEG_04,388E,48.61606765152983,7.73274689912796,Marc Seguin,http://applis.cts-strasbourg.fr/CTS_FicheHorairev3/ResultatsFiches.aspx?arret=388E
MASEG_05,388C,48.616086270256154,7.731702178716659,Marc Seguin,http://applis.cts-strasbourg.fr/CTS_FicheHorairev3/ResultatsFiches.aspx?arret=388C
MAZEL_01,389A,48.59584366166868,7.717100232839584,Mathieu Zell,http://applis.cts-strasbourg.fr/CTS_FicheHorairev3/ResultatsFiches.aspx?arret=389A
MAZEL_02,389B,48.595332769378714,7.717702388763428,Mathieu Zell,http://applis.cts-strasbourg.fr/CTS_FicheHorairev3/ResultatsFiches.aspx?arret=389B
MIANG_01,392A,48.56420649550019,7.720290720462799,Michel Ange,http://applis.cts-strasbourg.fr/CTS_FicheHorairev3/ResultatsFiches.aspx?arret=392A
MIANG_02,392B,48.56413283156883,7.720194160938263,Michel Ange,http://applis.cts-strasbourg.fr/CTS_FicheHorairev3/ResultatsFiches.aspx?arret=392B
MIEGL_01,393A,48.61433253342127,7.694424837827682,Mittelhausbergen Eglise,http://applis.cts-strasbourg.fr/CTS_FicheHorairev3/ResultatsFiches.aspx?arret=393A
MIEGL_02,393B,48.6143121407742,7.694014459848404,Mittelhausbergen Eglise,http://applis.cts-strasbourg.fr/CTS_FicheHorairev3/ResultatsFiches.aspx?arret=393B
MIMIT_01,394A,48.612266627759624,7.697039991617203,Mittelhausbergen Mittelberg,http://applis.cts-strasbourg.fr/CTS_FicheHorairev3/ResultatsFiches.aspx?arret=394A
MITMI_01,394A,48.612266627759624,7.697039991617203,Mittelhausbergen Mittelberg,http://applis.cts-strasbourg.fr/CTS_FicheHorairev3/ResultatsFiches.aspx?arret=394A
MITTE_01,395A,48.58741682666012,7.697396725416183,Mitterrand,http://applis.cts-strasbourg.fr/CTS_FicheHorairev3/ResultatsFiches.aspx?arret=395A
MITTE_02,395B,48.58737868094871,7.69755631685257,Mitterrand,http://applis.cts-strasbourg.fr/CTS_FicheHorairev3/ResultatsFiches.aspx?arret=395B
MOLKE_01,396A,48.56299413329571,7.701293975114822,Molkenbronn,http://applis.cts-strasbourg.fr/CTS_FicheHorairev3/ResultatsFiches.aspx?arret=396A
MOLKE_02,396B,48.562799762128,7.700255960226059,Molkenbronn,http://applis.cts-strasbourg.fr/CTS_FicheHorairev3/ResultatsFiches.aspx?arret=396B
MONTE_01,398A,48.59835724744972,7.695304602384567,Montesquieu,http://applis.cts-strasbourg.fr/CTS_FicheHorairev3/ResultatsFiches.aspx?arret=398A
MONTE_02,398B,48.59846545122806,7.6953622698783874,Montesquieu,http://applis.cts-strasbourg.fr/CTS_FicheHorairev3/ResultatsFiches.aspx?arret=398B
MOSER_01,399A,48.60324835881191,7.737932950258255,Moser,http://applis.cts-strasbourg.fr/CTS_FicheHorairev3/ResultatsFiches.aspx?arret=399A
MOSER_02,399B,48.60320667772415,7.738068401813507,Moser,http://applis.cts-strasbourg.fr/CTS_FicheHorairev3/ResultatsFiches.aspx?arret=399B
MOULI_01,400A,48.58098310101096,7.666423916816711,Moulin,http://applis.cts-strasbourg.fr/CTS_FicheHorairev3/ResultatsFiches.aspx?arret=400A
MOULI_02,400B,48.581433807861856,7.666383683681488,Moulin,http://applis.cts-strasbourg.fr/CTS_FicheHorairev3/ResultatsFiches.aspx?arret=400B
MOVER_01,410A,48.57467278311878,7.72701770067215,Montagne Verte,http://applis.cts-strasbourg.fr/CTS_FicheHorairev3/ResultatsFiches.aspx?arret=410A
MOVER_F3,410A,48.57467278311878,7.72701770067215,Montagne Verte,http://applis.cts-strasbourg.fr/CTS_FicheHorairev3/ResultatsFiches.aspx?arret=410A
MOVER_03,410C,48.57446780879822,7.72738516330719,Montagne Verte,http://applis.cts-strasbourg.fr/CTS_FicheHorairev3/ResultatsFiches.aspx?arret=410C
MOVER_04,410D,48.57475264301871,7.727072685956955,Montagne Verte,http://applis.cts-strasbourg.fr/CTS_FicheHorairev3/ResultatsFiches.aspx?arret=410D
MOVER_F1,410B,48.57456807772553,7.727413326501846,Montagne Verte,http://applis.cts-strasbourg.fr/CTS_FicheHorairev3/ResultatsFiches.aspx?arret=410B
MOZAR_01,411A,48.62979222235962,7.753648012876511,Mozart,http://applis.cts-strasbourg.fr/CTS_FicheHorairev3/ResultatsFiches.aspx?arret=411A
MOZAR_02,411B,48.630087381082376,7.753755301237106,Mozart,http://applis.cts-strasbourg.fr/CTS_FicheHorairev3/ResultatsFiches.aspx?arret=411B
MSCHO_01,412A,48.566258392252635,7.720172703266144,Martin Schongauer,http://applis.cts-strasbourg.fr/CTS_FicheHorairev3/ResultatsFiches.aspx?arret=412A
MSCHO_02,412B,48.56610042046056,7.720068097114563,Martin Schongauer,http://applis.cts-strasbourg.fr/CTS_FicheHorairev3/ResultatsFiches.aspx?arret=412B
MSCHO_03,412C,48.566121720056806,7.720271944999695,Martin Schongauer,http://applis.cts-strasbourg.fr/CTS_FicheHorairev3/ResultatsFiches.aspx?arret=412C
MSCHO_04,412D,48.565543077836914,7.720033228397369,Martin Schongauer,http://applis.cts-strasbourg.fr/CTS_FicheHorairev3/ResultatsFiches.aspx?arret=412D
MUHLB_01,414A,48.58690673627707,7.655794322490692,Mühlbach,http://applis.cts-strasbourg.fr/CTS_FicheHorairev3/ResultatsFiches.aspx?arret=414A
MUHLB_02,414B,48.58674971611408,7.654898464679718,Mühlbach,http://applis.cts-strasbourg.fr/CTS_FicheHorairev3/ResultatsFiches.aspx?arret=414B
MULHO_01,415A,48.568115855019364,7.757535874843597,Mulhouse,http://applis.cts-strasbourg.fr/CTS_FicheHorairev3/ResultatsFiches.aspx?arret=415A
MULHO_02,415B,48.56838830082011,7.757389694452286,Mulhouse,http://applis.cts-strasbourg.fr/CTS_FicheHorairev3/ResultatsFiches.aspx?arret=415B
MUMAI_01,416A,48.64173014811278,7.714654058218002,Mundolsheim Mairie,http://applis.cts-strasbourg.fr/CTS_FicheHorairev3/ResultatsFiches.aspx?arret=416A
MUMAI_02,416B,48.641741668131736,7.715355455875397,Mundolsheim Mairie,http://applis.cts-strasbourg.fr/CTS_FicheHorairev3/ResultatsFiches.aspx?arret=416B
MURHO_01,417A,48.55909325392656,7.711896747350693,Mürhof,http://applis.cts-strasbourg.fr/CTS_FicheHorairev3/ResultatsFiches.aspx?arret=417A
MURHO_02,417B,48.55905419923329,7.7121502161026,Mürhof,http://applis.cts-strasbourg.fr/CTS_FicheHorairev3/ResultatsFiches.aspx?arret=417B
MUSAU_01,418A,48.56119417446217,7.781333774328232,Musau,http://applis.cts-strasbourg.fr/CTS_FicheHorairev3/ResultatsFiches.aspx?arret=418A
MUSAU_02,418B,48.56131932160088,7.780660539865494,Musau,http://applis.cts-strasbourg.fr/CTS_FicheHorairev3/ResultatsFiches.aspx?arret=418B
NEDGR_01,420A,48.56130068268495,7.763826996088028,Neudorf Gravière,http://applis.cts-strasbourg.fr/CTS_FicheHorairev3/ResultatsFiches.aspx?arret=420A
NEDGR_02,420B,48.56145511920964,7.76383101940155,Neudorf Gravière,http://applis.cts-strasbourg.fr/CTS_FicheHorairev3/ResultatsFiches.aspx?arret=420B
NEDMA_01,421A,48.5660533838204,7.758881002664566,Neudorf Marché,http://applis.cts-strasbourg.fr/CTS_FicheHorairev3/ResultatsFiches.aspx?arret=421A
NEDMA_02,421B,48.565959310408836,7.7591827511787414,Neudorf Marché,http://applis.cts-strasbourg.fr/CTS_FicheHorairev3/ResultatsFiches.aspx?arret=421B
NEHEG_01,423A,48.53685649288562,7.770598232746124,Neuhof Eglise,http://applis.cts-strasbourg.fr/CTS_FicheHorairev3/ResultatsFiches.aspx?arret=423A
NEHEG_02,423B,48.536907108657076,7.770651876926422,Neuhof Eglise,http://applis.cts-strasbourg.fr/CTS_FicheHorairev3/ResultatsFiches.aspx?arret=423B
NEHGA_01,424A,48.5273016377336,7.760184556245804,Neuhof Ganzau,http://applis.cts-strasbourg.fr/CTS_FicheHorairev3/ResultatsFiches.aspx?arret=424A
NEHJM_01,425A,48.54143745921148,7.775478512048721,Jean Moulin,http://applis.cts-strasbourg.fr/CTS_FicheHorairev3/ResultatsFiches.aspx?arret=425A
NEHJM_02,425B,48.541674532249296,7.775538861751556,Jean Moulin,http://applis.cts-strasbourg.fr/CTS_FicheHorairev3/ResultatsFiches.aspx?arret=425B
NEHLO_01,426B,48.54391113295927,7.788798362016678,Neuhof Lorient,http://applis.cts-strasbourg.fr/CTS_FicheHorairev3/ResultatsFiches.aspx?arret=426B
NEHLO_02,426A,48.54465161336186,7.787587344646454,Neuhof Lorient,http://applis.cts-strasbourg.fr/CTS_FicheHorairev3/ResultatsFiches.aspx?arret=426A
NEHST_01,427A,48.52766755998746,7.769470363855362,Neuhof Stéphanie,http://applis.cts-strasbourg.fr/CTS_FicheHorairev3/ResultatsFiches.aspx?arret=427A
NEUVE_01,428A,48.59160026063052,7.721768617630005,Neuve,http://applis.cts-strasbourg.fr/CTS_FicheHorairev3/ResultatsFiches.aspx?arret=428A
NEUVE_02,428B,48.591508008823816,7.721934914588928,Neuve,http://applis.cts-strasbourg.fr/CTS_FicheHorairev3/ResultatsFiches.aspx?arret=428B
NICIG_01,429A,48.5723008865819,7.714615166187286,Nid de Cigognes,http://applis.cts-strasbourg.fr/CTS_FicheHorairev3/ResultatsFiches.aspx?arret=429A
NICIG_02,429B,48.572493446492615,7.715500295162201,Nid de Cigognes,http://applis.cts-strasbourg.fr/CTS_FicheHorairev3/ResultatsFiches.aspx?arret=429B
NIEDE_01,430B,48.533013986500805,7.720781564712524,Niederbourg,http://applis.cts-strasbourg.fr/CTS_FicheHorairev3/ResultatsFiches.aspx?arret=430B
NIEDE_02,430A,48.53310190474382,7.721170485019684,Niederbourg,http://applis.cts-strasbourg.fr/CTS_FicheHorairev3/ResultatsFiches.aspx?arret=430A
NIMAI_01,431A,48.623253083192694,7.6999931037425995,Niederhausbergen Mairie,http://applis.cts-strasbourg.fr/CTS_FicheHorairev3/ResultatsFiches.aspx?arret=431A
NIMAI_02,431B,48.6231653215982,7.7002036571502685,Niederhausbergen Mairie,http://applis.cts-strasbourg.fr/CTS_FicheHorairev3/ResultatsFiches.aspx?arret=431B
NIOUE_01,432A,48.62484872193628,7.7000561356544495,Niederhausbergen Ouest,http://applis.cts-strasbourg.fr/CTS_FicheHorairev3/ResultatsFiches.aspx?arret=432A
NIOUE_02,432B,48.62512086195293,7.700211703777313,Niederhausbergen Ouest,http://applis.cts-strasbourg.fr/CTS_FicheHorairev3/ResultatsFiches.aspx?arret=432B
NITER_01,680A,48.62692386330085,7.701469659805298,Niederhausbergen Ouest (départ),http://applis.cts-strasbourg.fr/CTS_FicheHorairev3/ResultatsFiches.aspx?arret=680A
NORDD_01,433A,48.623184824187945,7.7117787301540375,Nord,http://applis.cts-strasbourg.fr/CTS_FicheHorairev3/ResultatsFiches.aspx?arret=433A
NORDD_02,433B,48.623136954181504,7.712053656578064,Nord,http://applis.cts-strasbourg.fr/CTS_FicheHorairev3/ResultatsFiches.aspx?arret=433B
OBEES_01,434A,48.60207063312994,7.695020288228989,Oberhausbergen Est,http://applis.cts-strasbourg.fr/CTS_FicheHorairev3/ResultatsFiches.aspx?arret=434A
OBEES_02,434B,48.60180723740884,7.695523202419281,Oberhausbergen Est,http://applis.cts-strasbourg.fr/CTS_FicheHorairev3/ResultatsFiches.aspx?arret=434B
OBHEG_01,435A,48.60994349123983,7.68474206328392,Oberhausbergen Eglise,http://applis.cts-strasbourg.fr/CTS_FicheHorairev3/ResultatsFiches.aspx?arret=435A
OBHEG_02,435B,48.60996920593136,7.684676349163055,Oberhausbergen Eglise,http://applis.cts-strasbourg.fr/CTS_FicheHorairev3/ResultatsFiches.aspx?arret=435B
OBHMA_01,682A,48.60624575962051,7.685544043779373,Oberhausbergen Mairie,http://applis.cts-strasbourg.fr/CTS_FicheHorairev3/ResultatsFiches.aspx?arret=682A
OBHMA_02,682B,48.60579970798596,7.686101943254471,Oberhausbergen Mairie,http://applis.cts-strasbourg.fr/CTS_FicheHorairev3/ResultatsFiches.aspx?arret=682B
OBLYO_01,436A,48.57848817070966,7.731470167636871,Obernai Lyon,http://applis.cts-strasbourg.fr/CTS_FicheHorairev3/ResultatsFiches.aspx?arret=436A
OBLYO_02,436B,48.57840388037344,7.731643170118332,Obernai Lyon,http://applis.cts-strasbourg.fr/CTS_FicheHorairev3/ResultatsFiches.aspx?arret=436B
OBLYO_03,436C,48.57814745943385,7.731114774942398,Obernai-Lyon,http://applis.cts-strasbourg.fr/CTS_FicheHorairev3/ResultatsFiches.aspx?arret=436C
OBLYO_04,436D,48.57876322240815,7.731204628944397,Obernai-Lyon,http://applis.cts-strasbourg.fr/CTS_FicheHorairev3/ResultatsFiches.aspx?arret=436D
OBSCA_01,437A,48.584685343517215,7.646791487932205,Oberschaeffolsheim Canal,http://applis.cts-strasbourg.fr/CTS_FicheHorairev3/ResultatsFiches.aspx?arret=437A
OBSCA_02,437B,48.58477938209087,7.646878659725189,Oberschaeffolsheim Canal,http://applis.cts-strasbourg.fr/CTS_FicheHorairev3/ResultatsFiches.aspx?arret=437B
OBSER_01,438A,48.580887280926206,7.770566046237946,Observatoire,http://applis.cts-strasbourg.fr/CTS_FicheHorairev3/ResultatsFiches.aspx?arret=438A
OBSER_04,438C,48.5815101082302,7.77045875787735,Observatoire,http://applis.cts-strasbourg.fr/CTS_FicheHorairev3/ResultatsFiches.aspx?arret=438C
OBSER_05,438E,48.58130249998158,7.769114971160889,Observatoire,http://applis.cts-strasbourg.fr/CTS_FicheHorairev3/ResultatsFiches.aspx?arret=438E
OBSER_06,438F,48.58151188265598,7.768798470497131,Observatoire,http://applis.cts-strasbourg.fr/CTS_FicheHorairev3/ResultatsFiches.aspx?arret=438F
OBSER_10,438D,48.58148881511572,7.770313918590546,Observatoire,http://applis.cts-strasbourg.fr/CTS_FicheHorairev3/ResultatsFiches.aspx?arret=438D
OBSER_F4,438B,48.58154737115891,7.770509719848633,Observatoire,http://applis.cts-strasbourg.fr/CTS_FicheHorairev3/ResultatsFiches.aspx?arret=438B
OBSMA_01,439A,48.58607549969995,7.648356556892395,Oberschaeffolsheim Mairie,http://applis.cts-strasbourg.fr/CTS_FicheHorairev3/ResultatsFiches.aspx?arret=439A
OBSMA_02,439B,48.58625470020344,7.649281919002533,Oberschaeffolsheim Mairie,http://applis.cts-strasbourg.fr/CTS_FicheHorairev3/ResultatsFiches.aspx?arret=439B
OBSST_01,440A,48.58213470226372,7.6472219824790955,Oberschaeffolsheim Stade ,http://applis.cts-strasbourg.fr/CTS_FicheHorairev3/ResultatsFiches.aspx?arret=440A
OCTRO_01,441A,48.58054126244121,7.695249617099762,Octroi,http://applis.cts-strasbourg.fr/CTS_FicheHorairev3/ResultatsFiches.aspx?arret=441A
OCTRO_02,441B,48.58048536692527,7.695138305425644,Octroi,http://applis.cts-strasbourg.fr/CTS_FicheHorairev3/ResultatsFiches.aspx?arret=441B
OHEGL_01,442A,48.48956370802487,7.699663192033768,Ohnheim Eglise,http://applis.cts-strasbourg.fr/CTS_FicheHorairev3/ResultatsFiches.aspx?arret=442A
OHEGL_02,442B,48.48944104993365,7.699813395738602,Ohnheim Eglise,http://applis.cts-strasbourg.fr/CTS_FicheHorairev3/ResultatsFiches.aspx?arret=442B
ORANG_01,443A,48.59177766747773,7.76958703994751,Orangerie,http://applis.cts-strasbourg.fr/CTS_FicheHorairev3/ResultatsFiches.aspx?arret=443A
ORANG_02,443B,48.59217683060652,7.7696192264556885,Orangerie,http://applis.cts-strasbourg.fr/CTS_FicheHorairev3/ResultatsFiches.aspx?arret=443B
ORBEY_01,444A,48.56311572583818,7.773677408695221,Orbey,http://applis.cts-strasbourg.fr/CTS_FicheHorairev3/ResultatsFiches.aspx?arret=444A
ORBEY_02,444B,48.56255124995798,7.773484289646149,Orbey,http://applis.cts-strasbourg.fr/CTS_FicheHorairev3/ResultatsFiches.aspx?arret=444B
ORMES_01,445A,48.51607755362251,7.722181677818298,Ormes,http://applis.cts-strasbourg.fr/CTS_FicheHorairev3/ResultatsFiches.aspx?arret=445A
ORMES_02,445B,48.51597361529649,7.722256779670715,Ormes,http://applis.cts-strasbourg.fr/CTS_FicheHorairev3/ResultatsFiches.aspx?arret=445B
OSBEL_01,447A,48.539874702789525,7.710259258747101,Ostwald Bellevue,http://applis.cts-strasbourg.fr/CTS_FicheHorairev3/ResultatsFiches.aspx?arret=447A
OSBEL_02,447B,48.53952041209647,7.710295468568802,Ostwald Bellevue,http://applis.cts-strasbourg.fr/CTS_FicheHorairev3/ResultatsFiches.aspx?arret=447B
OSHVI_01,448C,48.550964789862334,7.710414826869965,Ostwald Hôtel de Ville,http://applis.cts-strasbourg.fr/CTS_FicheHorairev3/ResultatsFiches.aspx?arret=448C
OSHVI_02,448D,48.55103048324125,7.710205614566803,Ostwald Hôtel de Ville,http://applis.cts-strasbourg.fr/CTS_FicheHorairev3/ResultatsFiches.aspx?arret=448D
OSHVI_05,448A,48.550559974726404,7.710732668638229,Ostwald Hôtel de Ville,http://applis.cts-strasbourg.fr/CTS_FicheHorairev3/ResultatsFiches.aspx?arret=448A
OSHVI_06,448B,48.55042769890324,7.71053820848465,Ostwald Hôtel de Ville,http://applis.cts-strasbourg.fr/CTS_FicheHorairev3/ResultatsFiches.aspx?arret=448B
OSMAI_01,449A,48.54315998709383,7.70933523774147,Ostwald Eglise,http://applis.cts-strasbourg.fr/CTS_FicheHorairev3/ResultatsFiches.aspx?arret=449A
OSMAI_02,449B,48.543622573514014,7.7102673053741455,Ostwald Eglise,http://applis.cts-strasbourg.fr/CTS_FicheHorairev3/ResultatsFiches.aspx?arret=449B
PACON_01,451A,48.590408070459986,7.756063342094421,Parc du Contades,http://applis.cts-strasbourg.fr/CTS_FicheHorairev3/ResultatsFiches.aspx?arret=451A
PACON_02,451B,48.59020138582096,7.755884975194931,Parc du Contades,http://applis.cts-strasbourg.fr/CTS_FicheHorairev3/ResultatsFiches.aspx?arret=451B
PAELU_01,452A,48.589260206023766,7.697312235832214,Paul Eluard,http://applis.cts-strasbourg.fr/CTS_FicheHorairev3/ResultatsFiches.aspx?arret=452A
PAELU_02,452B,48.58911472520717,7.697325646877289,Paul Eluard,http://applis.cts-strasbourg.fr/CTS_FicheHorairev3/ResultatsFiches.aspx?arret=452B
PAEUR_01,453A,48.593927788942,7.772143185138702,Palais de l'Europe,http://applis.cts-strasbourg.fr/CTS_FicheHorairev3/ResultatsFiches.aspx?arret=453A
PAEUR_02,453B,48.593993426524335,7.772046625614166,Palais de l'Europe,http://applis.cts-strasbourg.fr/CTS_FicheHorairev3/ResultatsFiches.aspx?arret=453B
PAFET_01,454A,48.59017654812505,7.749125808477402,Palais des Fêtes,http://applis.cts-strasbourg.fr/CTS_FicheHorairev3/ResultatsFiches.aspx?arret=454A
PAFET_02,454B,48.5903637176044,7.748879045248032,Palais des Fêtes,http://applis.cts-strasbourg.fr/CTS_FicheHorairev3/ResultatsFiches.aspx?arret=454B
PAGAU_01,455A,48.55904443555528,7.639089524745941,Parc de Gaulle,http://applis.cts-strasbourg.fr/CTS_FicheHorairev3/ResultatsFiches.aspx?arret=455A
PAGAU_02,455B,48.55899472952884,7.638716697692871,Parc de Gaulle,http://applis.cts-strasbourg.fr/CTS_FicheHorairev3/ResultatsFiches.aspx?arret=455B
PAINN_01,456A,48.52561942714281,7.736520767211914,Parc d'Innovation,http://applis.cts-strasbourg.fr/CTS_FicheHorairev3/ResultatsFiches.aspx?arret=456A
PAINN_02,456B,48.52635218149697,7.7352359890937805,Parc d'Innovation,http://applis.cts-strasbourg.fr/CTS_FicheHorairev3/ResultatsFiches.aspx?arret=456B
PAIXX_01,457A,48.6063167018633,7.7294303476810455,Paix,http://applis.cts-strasbourg.fr/CTS_FicheHorairev3/ResultatsFiches.aspx?arret=457A
PAIXX_02,457B,48.60624132572704,7.729585915803909,Paix,http://applis.cts-strasbourg.fr/CTS_FicheHorairev3/ResultatsFiches.aspx?arret=457B
PALER_01,458A,48.577742861811274,7.764166295528412,Palerme,http://applis.cts-strasbourg.fr/CTS_FicheHorairev3/ResultatsFiches.aspx?arret=458A
PALER_02,458B,48.5775041831864,7.765178829431534,Palerme,http://applis.cts-strasbourg.fr/CTS_FicheHorairev3/ResultatsFiches.aspx?arret=458B
PAPET_01,459A,48.611602505367166,7.780412435531616,Papeterie,http://applis.cts-strasbourg.fr/CTS_FicheHorairev3/ResultatsFiches.aspx?arret=459A
PAPET_02,459B,48.611519156946635,7.780420482158661,Papeterie,http://applis.cts-strasbourg.fr/CTS_FicheHorairev3/ResultatsFiches.aspx?arret=459B
PAPET_03,459C,48.61171068077162,7.781640887260437,Papeterie,http://applis.cts-strasbourg.fr/CTS_FicheHorairev3/ResultatsFiches.aspx?arret=459C
PAPET_04,459D,48.61167344008478,7.781726717948914,Papeterie,http://applis.cts-strasbourg.fr/CTS_FicheHorairev3/ResultatsFiches.aspx?arret=459D
PAPOT_01,460A,48.582478935449025,7.691918313503265,Parc des Poteries,http://applis.cts-strasbourg.fr/CTS_FicheHorairev3/ResultatsFiches.aspx?arret=460A
PAPOT_02,460B,48.583215302690334,7.690534293651581,Parc des Poteries,http://applis.cts-strasbourg.fr/CTS_FicheHorairev3/ResultatsFiches.aspx?arret=460B
PARCC_01,462A,48.535032515353095,7.639548182487488,Parc,http://applis.cts-strasbourg.fr/CTS_FicheHorairev3/ResultatsFiches.aspx?arret=462A
PARCC_02,462B,48.53517815180569,7.6390814781188965,Parc,http://applis.cts-strasbourg.fr/CTS_FicheHorairev3/ResultatsFiches.aspx?arret=462B
PARHI_01,463A,48.57279515179051,7.795113623142242,Jardin des Deux Rives,http://applis.cts-strasbourg.fr/CTS_FicheHorairev3/ResultatsFiches.aspx?arret=463A
PARHI_02,463B,48.572704640390164,7.795306742191315,Jardin des Deux Rives,http://applis.cts-strasbourg.fr/CTS_FicheHorairev3/ResultatsFiches.aspx?arret=463B
PARKE_01,463C,48.57258573301014,7.794880270957947,Jardin des Deux Rives,http://applis.cts-strasbourg.fr/CTS_FicheHorairev3/ResultatsFiches.aspx?arret=463C
PARKE_02,463D,48.572127848248535,7.794477939605713,Jardin des Deux Rives,http://applis.cts-strasbourg.fr/CTS_FicheHorairev3/ResultatsFiches.aspx?arret=463D
PARLE_01,464A,48.59928495428655,7.766550779342651,Parlement Européen,http://applis.cts-strasbourg.fr/CTS_FicheHorairev3/ResultatsFiches.aspx?arret=464A
PARLE_02,464B,48.59943217961773,7.767264246940613,Parlement Européen,http://applis.cts-strasbourg.fr/CTS_FicheHorairev3/ResultatsFiches.aspx?arret=464B
PATRO_01,466A,48.65716461312439,7.829868346452713,Patronage,http://applis.cts-strasbourg.fr/CTS_FicheHorairev3/ResultatsFiches.aspx?arret=466A
PAWOD_01,467A,48.61649322070195,7.75359034538269,Parc Wodli,http://applis.cts-strasbourg.fr/CTS_FicheHorairev3/ResultatsFiches.aspx?arret=467A
PAWOD_02,467B,48.61726544226781,7.754242122173309,Parc Wodli,http://applis.cts-strasbourg.fr/CTS_FicheHorairev3/ResultatsFiches.aspx?arret=467B
PENEI_01,469A,48.552420677178624,7.683219909667969,Perce-neige,http://applis.cts-strasbourg.fr/CTS_FicheHorairev3/ResultatsFiches.aspx?arret=469A
PENEI_02,469B,48.55205404608734,7.684210985898972,Perce-neige,http://applis.cts-strasbourg.fr/CTS_FicheHorairev3/ResultatsFiches.aspx?arret=469B
PERDR_01,470A,48.663684299250136,7.719999700784683,Perdrix,http://applis.cts-strasbourg.fr/CTS_FicheHorairev3/ResultatsFiches.aspx?arret=470A
PERDR_02,470B,48.66397217355817,7.719870954751968,Perdrix,http://applis.cts-strasbourg.fr/CTS_FicheHorairev3/ResultatsFiches.aspx?arret=470B
PERDR_03,703A,48.46712567470706,7.737446129322052,Perdrix,http://applis.cts-strasbourg.fr/CTS_FicheHorairev3/ResultatsFiches.aspx?arret=703A
PERHI_01,471C,48.57105765955321,7.786306589841843,Petit Rhin,http://applis.cts-strasbourg.fr/CTS_FicheHorairev3/ResultatsFiches.aspx?arret=471C
PERHI_02,471D,48.57097868121469,7.785949856042862,Petit Rhin,http://applis.cts-strasbourg.fr/CTS_FicheHorairev3/ResultatsFiches.aspx?arret=471D
PETIT_01,472A,48.64085816365568,7.710176110267639,Petite,http://applis.cts-strasbourg.fr/CTS_FicheHorairev3/ResultatsFiches.aspx?arret=472A
PETIT_02,472B,48.64106198251087,7.710063457489014,Petite,http://applis.cts-strasbourg.fr/CTS_FicheHorairev3/ResultatsFiches.aspx?arret=472B
PFIST_01,473A,48.55468964730517,7.753273844718933,Pfister,http://applis.cts-strasbourg.fr/CTS_FicheHorairev3/ResultatsFiches.aspx?arret=473A
PFIST_02,473B,48.554649701527964,7.753378450870514,Pfister,http://applis.cts-strasbourg.fr/CTS_FicheHorairev3/ResultatsFiches.aspx?arret=473B
PHALS_01,474A,48.5915452643814,7.74911642074585,Phalsbourg,http://applis.cts-strasbourg.fr/CTS_FicheHorairev3/ResultatsFiches.aspx?arret=474A
PHALS_02,474B,48.59134124551502,7.749089598655701,Phalsbourg,http://applis.cts-strasbourg.fr/CTS_FicheHorairev3/ResultatsFiches.aspx?arret=474B
PIGEO_01,476A,48.534782978750094,7.708505094051361,Pigeons,http://applis.cts-strasbourg.fr/CTS_FicheHorairev3/ResultatsFiches.aspx?arret=476A
PIGEO_02,476B,48.535211008752306,7.709128707647324,Pigeons,http://applis.cts-strasbourg.fr/CTS_FicheHorairev3/ResultatsFiches.aspx?arret=476B
PLBOU_01,477A,48.56222374455479,7.73961067199707,Plaine des Bouchers,http://applis.cts-strasbourg.fr/CTS_FicheHorairev3/ResultatsFiches.aspx?arret=477A
PLBOU_02,477B,48.56235687708832,7.7395302057266235,Plaine des Bouchers,http://applis.cts-strasbourg.fr/CTS_FicheHorairev3/ResultatsFiches.aspx?arret=477B
PLCOL_01,478A,48.53096962228921,7.770666629076004,Place des colombes,http://applis.cts-strasbourg.fr/CTS_FicheHorairev3/ResultatsFiches.aspx?arret=478A
PLISL_01,706A,48.58040462884866,7.77545839548111,Place d'Islande,http://applis.cts-strasbourg.fr/CTS_FicheHorairev3/ResultatsFiches.aspx?arret=706A
PLISL_03,706C,48.58078791175756,7.776811569929123,Place d'Islande,http://applis.cts-strasbourg.fr/CTS_FicheHorairev3/ResultatsFiches.aspx?arret=706C
PLISL_05,706E,48.58075863330454,7.776601016521454,Place d'Islande,http://applis.cts-strasbourg.fr/CTS_FicheHorairev3/ResultatsFiches.aspx?arret=706E
PLOCA_01,481A,48.47087314936038,7.7185311913490295,Plobsheim Canal,http://applis.cts-strasbourg.fr/CTS_FicheHorairev3/ResultatsFiches.aspx?arret=481A
PLOCA_02,481B,48.470824690486275,7.718485593795776,Plobsheim Canal,http://applis.cts-strasbourg.fr/CTS_FicheHorairev3/ResultatsFiches.aspx?arret=481B
PLOEG_01,482A,48.470491256611496,7.722570598125458,Plobsheim Eglise,http://applis.cts-strasbourg.fr/CTS_FicheHorairev3/ResultatsFiches.aspx?arret=482A
PLOEG_02,482B,48.47029386272518,7.723163366317749,Plobsheim Eglise,http://applis.cts-strasbourg.fr/CTS_FicheHorairev3/ResultatsFiches.aspx?arret=482B
PLOMA_01,484A,48.47049925905015,7.7257972955703735,Plobsheim Mairie,http://applis.cts-strasbourg.fr/CTS_FicheHorairev3/ResultatsFiches.aspx?arret=484A
PLOMA_02,484B,48.470205835474246,7.726025283336639,Plobsheim Mairie,http://applis.cts-strasbourg.fr/CTS_FicheHorairev3/ResultatsFiches.aspx?arret=484B
PLOST_01,483A,48.46559441667304,7.735868990421295,Plobsheim Est,http://applis.cts-strasbourg.fr/CTS_FicheHorairev3/ResultatsFiches.aspx?arret=483A
PLPIE_01,485C,48.59072918397317,7.744945585727692,Place de Pierre,http://applis.cts-strasbourg.fr/CTS_FicheHorairev3/ResultatsFiches.aspx?arret=485C
PLPIE_02,485D,48.59063367296587,7.745336728947109,Place de Pierre,http://applis.cts-strasbourg.fr/CTS_FicheHorairev3/ResultatsFiches.aspx?arret=485D
PLPIE_03,485A,48.5907238616664,7.744452059268951,Place de Pierre,http://applis.cts-strasbourg.fr/CTS_FicheHorairev3/ResultatsFiches.aspx?arret=485A
PLPIE_04,485B,48.59085691916799,7.744452059268951,Place de Pierre,http://applis.cts-strasbourg.fr/CTS_FicheHorairev3/ResultatsFiches.aspx?arret=485B
PLROM_01,486A,48.57994504041782,7.703840732574463,Place des Romains,http://applis.cts-strasbourg.fr/CTS_FicheHorairev3/ResultatsFiches.aspx?arret=486A
PLROM_02,486B,48.57987213246927,7.703752241104439,Place des Romains,http://applis.cts-strasbourg.fr/CTS_FicheHorairev3/ResultatsFiches.aspx?arret=486B
PLWAT_01,488A,48.56080009208778,7.783982455730438,Place de Wattwiller,http://applis.cts-strasbourg.fr/CTS_FicheHorairev3/ResultatsFiches.aspx?arret=488A
PLWAT_02,488B,48.56057642234735,7.7844250202178955,Place de Wattwiller,http://applis.cts-strasbourg.fr/CTS_FicheHorairev3/ResultatsFiches.aspx?arret=488B
POINC_01,491A,48.61406742836675,7.732811272144318,Poincaré,http://applis.cts-strasbourg.fr/CTS_FicheHorairev3/ResultatsFiches.aspx?arret=491A
POINC_02,491B,48.61401068329127,7.732980251312256,Poincaré,http://applis.cts-strasbourg.fr/CTS_FicheHorairev3/ResultatsFiches.aspx?arret=491B
POKUS_01,492A,48.58320997959216,7.738449275493622,Pont Kuss,http://applis.cts-strasbourg.fr/CTS_FicheHorairev3/ResultatsFiches.aspx?arret=492A
POKUS_02,492B,48.58347081074409,7.739817202091217,Pont Kuss,http://applis.cts-strasbourg.fr/CTS_FicheHorairev3/ResultatsFiches.aspx?arret=492B
POLYG_01,700A,48.55757986250936,7.766129672527313,Polygone,http://applis.cts-strasbourg.fr/CTS_FicheHorairev3/ResultatsFiches.aspx?arret=700A
POLYG_02,700B,48.557849702184235,7.766234278678894,Polygone,http://applis.cts-strasbourg.fr/CTS_FicheHorairev3/ResultatsFiches.aspx?arret=700B
POPEA_01,495A,48.51839701070328,7.702527791261673,Pont du Péage,http://applis.cts-strasbourg.fr/CTS_FicheHorairev3/ResultatsFiches.aspx?arret=495A
POPEA_02,495B,48.518807412962836,7.7034008502960205,Pont du Péage,http://applis.cts-strasbourg.fr/CTS_FicheHorairev3/ResultatsFiches.aspx?arret=495B
POPHA_01,496D,48.612932514739334,7.768665701150894,Pont Phario,http://applis.cts-strasbourg.fr/CTS_FicheHorairev3/ResultatsFiches.aspx?arret=496D
POPHA_02,496E,48.61262040901939,7.767997831106186,Pont Phario,http://applis.cts-strasbourg.fr/CTS_FicheHorairev3/ResultatsFiches.aspx?arret=496E
POPHA_03,496B,48.61305753381893,7.767205238342285,Pont Phario,http://applis.cts-strasbourg.fr/CTS_FicheHorairev3/ResultatsFiches.aspx?arret=496B
POPHA_04,496C,48.612858035140505,7.76713952422142,Pont Phario,http://applis.cts-strasbourg.fr/CTS_FicheHorairev3/ResultatsFiches.aspx?arret=496C
POPHA_07,496A,48.61321979216275,7.769182026386261,Pont Phario,http://applis.cts-strasbourg.fr/CTS_FicheHorairev3/ResultatsFiches.aspx?arret=496A
POPIE_01,497A,48.58642148029917,7.746275961399078,Pont de Pierre,http://applis.cts-strasbourg.fr/CTS_FicheHorairev3/ResultatsFiches.aspx?arret=497A
POPIE_02,497B,48.586873912893495,7.746073454618454,Pont de Pierre,http://applis.cts-strasbourg.fr/CTS_FicheHorairev3/ResultatsFiches.aspx?arret=497B
PORHI_01,498A,48.5735263359851,7.797892391681671,Pont du Rhin,http://applis.cts-strasbourg.fr/CTS_FicheHorairev3/ResultatsFiches.aspx?arret=498A
POSCH_03,499A,48.54129272868376,7.762414813041687,Pont Schuhansen,http://applis.cts-strasbourg.fr/CTS_FicheHorairev3/ResultatsFiches.aspx?arret=499A
POSCH_04,499B,48.54136908962727,7.762430906295776,Pont Schuhansen,http://applis.cts-strasbourg.fr/CTS_FicheHorairev3/ResultatsFiches.aspx?arret=499B
POSNC_01,500A,48.66784015900591,7.717007696628571,Pont S.N.C.F.,http://applis.cts-strasbourg.fr/CTS_FicheHorairev3/ResultatsFiches.aspx?arret=500A
POSNC_02,500B,48.66779233136733,7.7169084548950195,Pont S.N.C.F.,http://applis.cts-strasbourg.fr/CTS_FicheHorairev3/ResultatsFiches.aspx?arret=500B
POVAU_01,510A,48.569487831009056,7.780112028121948,Pont Vauban,http://applis.cts-strasbourg.fr/CTS_FicheHorairev3/ResultatsFiches.aspx?arret=510A
POVAU_02,510B,48.56980996486545,7.781718671321869,Pont Vauban,http://applis.cts-strasbourg.fr/CTS_FicheHorairev3/ResultatsFiches.aspx?arret=510B
POVIG_01,511A,48.519498515747585,7.735056281089783,Pont des Vignes,http://applis.cts-strasbourg.fr/CTS_FicheHorairev3/ResultatsFiches.aspx?arret=511A
POVIG_02,511B,48.51957490956409,7.7348873019218445,Pont des Vignes,http://applis.cts-strasbourg.fr/CTS_FicheHorairev3/ResultatsFiches.aspx?arret=511B
POVOS_01,512A,48.587234081827795,7.759619951248169,Pont des Vosges,http://applis.cts-strasbourg.fr/CTS_FicheHorairev3/ResultatsFiches.aspx?arret=512A
POVOS_02,512B,48.58774860442399,7.758203744888306,Pont des Vosges,http://applis.cts-strasbourg.fr/CTS_FicheHorairev3/ResultatsFiches.aspx?arret=512B
PRESS_01,513A,48.5600651735124,7.691988050937653,Prés,http://applis.cts-strasbourg.fr/CTS_FicheHorairev3/ResultatsFiches.aspx?arret=513A
PRESS_02,513B,48.559919608662945,7.691574990749359,Prés,http://applis.cts-strasbourg.fr/CTS_FicheHorairev3/ResultatsFiches.aspx?arret=513B
PROMA_03,486C,48.579815503155444,7.703741490840912,Place des Romains,http://applis.cts-strasbourg.fr/CTS_FicheHorairev3/ResultatsFiches.aspx?arret=486C
PROMA_04,486D,48.57988841450713,7.703826033135215,Place des Romains,http://applis.cts-strasbourg.fr/CTS_FicheHorairev3/ResultatsFiches.aspx?arret=486D
PROTE_01,515A,48.55214548217717,7.6889947056770325,Protection,http://applis.cts-strasbourg.fr/CTS_FicheHorairev3/ResultatsFiches.aspx?arret=515A
PROTE_02,515B,48.552031852836755,7.689080536365509,Protection,http://applis.cts-strasbourg.fr/CTS_FicheHorairev3/ResultatsFiches.aspx?arret=515B
PROVE_05,707A,48.54642375028721,7.758150100708008,Provence,http://applis.cts-strasbourg.fr/CTS_FicheHorairev3/ResultatsFiches.aspx?arret=707A
PROVE_06,707B,48.54646636604241,7.758243978023529,Provence,http://applis.cts-strasbourg.fr/CTS_FicheHorairev3/ResultatsFiches.aspx?arret=707B
PRRHI_01,517A,48.576597371594445,7.7878448367118835,Port du Rhin,http://applis.cts-strasbourg.fr/CTS_FicheHorairev3/ResultatsFiches.aspx?arret=517A
PRRHI_02,517B,48.57655921771684,7.787690609693527,Port du Rhin,http://applis.cts-strasbourg.fr/CTS_FicheHorairev3/ResultatsFiches.aspx?arret=517B
PRUNE_01,518A,48.614746591039186,7.7348792552948,Prunelliers,http://applis.cts-strasbourg.fr/CTS_FicheHorairev3/ResultatsFiches.aspx?arret=518A
PRUNE_02,518B,48.61471644563128,7.734530568122864,Prunelliers,http://applis.cts-strasbourg.fr/CTS_FicheHorairev3/ResultatsFiches.aspx?arret=518B
PTHOP_01,520C,48.57806760489641,7.750462889671326,Porte de l'Hôpital,http://applis.cts-strasbourg.fr/CTS_FicheHorairev3/ResultatsFiches.aspx?arret=520C
PTHOP_02,520D,48.578182950298895,7.750913500785828,Porte de l'Hôpital,http://applis.cts-strasbourg.fr/CTS_FicheHorairev3/ResultatsFiches.aspx?arret=520D
PTHOP_03,520A,48.5780374375939,7.750288546085358,Porte de l'Hôpital,http://applis.cts-strasbourg.fr/CTS_FicheHorairev3/ResultatsFiches.aspx?arret=520A
PTHOP_04,520B,48.578143910345986,7.750047147274017,Porte de l'Hôpital,http://applis.cts-strasbourg.fr/CTS_FicheHorairev3/ResultatsFiches.aspx?arret=520B
PULVE_01,521A,48.488545992417166,7.724407911300659,Pulverlaechel,http://applis.cts-strasbourg.fr/CTS_FicheHorairev3/ResultatsFiches.aspx?arret=521A
PULVE_02,521B,48.48867576340372,7.7255746722221374,Pulverlaechel,http://applis.cts-strasbourg.fr/CTS_FicheHorairev3/ResultatsFiches.aspx?arret=521B
QUQUI_01,522A,48.58920698138335,7.782672196626663,Quartier des Quinze,http://applis.cts-strasbourg.fr/CTS_FicheHorairev3/ResultatsFiches.aspx?arret=522A
QUQUI_02,522B,48.58927883463467,7.782724499702454,Quartier des Quinze,http://applis.cts-strasbourg.fr/CTS_FicheHorairev3/ResultatsFiches.aspx?arret=522B
RADOR_01,523A,48.63312839039098,7.7539631724357605,Raisin d'Or,http://applis.cts-strasbourg.fr/CTS_FicheHorairev3/ResultatsFiches.aspx?arret=523A
RADOR_02,523B,48.63291567637788,7.754073143005371,Raisin d'Or,http://applis.cts-strasbourg.fr/CTS_FicheHorairev3/ResultatsFiches.aspx?arret=523B
RATHS_01,524A,48.48087735970058,7.7121515572071075,Rathsamhausen,http://applis.cts-strasbourg.fr/CTS_FicheHorairev3/ResultatsFiches.aspx?arret=524A
RATHS_02,524B,48.48115560902472,7.712211906909943,Rathsamhausen,http://applis.cts-strasbourg.fr/CTS_FicheHorairev3/ResultatsFiches.aspx?arret=524B
REMAI_01,525A,48.648528274209085,7.753378450870514,Reichstett Mairie,http://applis.cts-strasbourg.fr/CTS_FicheHorairev3/ResultatsFiches.aspx?arret=525A
REMBR_01,526A,48.56661693314076,7.723506689071655,Rembrandt,http://applis.cts-strasbourg.fr/CTS_FicheHorairev3/ResultatsFiches.aspx?arret=526A
REMBR_02,526B,48.56657078445611,7.723691761493683,Rembrandt,http://applis.cts-strasbourg.fr/CTS_FicheHorairev3/ResultatsFiches.aspx?arret=526B
REPUB_01,527A,48.58659180833951,7.753839790821075,République,http://applis.cts-strasbourg.fr/CTS_FicheHorairev3/ResultatsFiches.aspx?arret=527A
REPUB_02,527B,48.58676745852983,7.75272399187088,République,http://applis.cts-strasbourg.fr/CTS_FicheHorairev3/ResultatsFiches.aspx?arret=527B
REPUB_05,527C,48.58645696535492,7.753700315952301,République,http://applis.cts-strasbourg.fr/CTS_FicheHorairev3/ResultatsFiches.aspx?arret=527C
REPUB_06,527D,48.58660422806998,7.754791975021362,République,http://applis.cts-strasbourg.fr/CTS_FicheHorairev3/ResultatsFiches.aspx?arret=527D
REPUB_07,527E,48.58584484465126,7.7551862597465515,République,http://applis.cts-strasbourg.fr/CTS_FicheHorairev3/ResultatsFiches.aspx?arret=527E
RHINN_01,528A,48.467241273031476,7.7311912178993225,Rhin,http://applis.cts-strasbourg.fr/CTS_FicheHorairev3/ResultatsFiches.aspx?arret=528A
RHINN_02,528B,48.46688380659185,7.731585502624512,Rhin,http://applis.cts-strasbourg.fr/CTS_FicheHorairev3/ResultatsFiches.aspx?arret=528B
RHTOR_01,529A,48.5534539766616,7.757868468761444,Rhin Tortu,http://applis.cts-strasbourg.fr/CTS_FicheHorairev3/ResultatsFiches.aspx?arret=529A
RHTOR_02,529B,48.5532462532025,7.757973074913025,Rhin Tortu,http://applis.cts-strasbourg.fr/CTS_FicheHorairev3/ResultatsFiches.aspx?arret=529B
RIAAR_01,530C,48.60032971271639,7.7542367577552795,Rives de l'Aar,http://applis.cts-strasbourg.fr/CTS_FicheHorairev3/ResultatsFiches.aspx?arret=530C
RIAAR_02,530D,48.60019313262143,7.754459381103516,Rives de l'Aar,http://applis.cts-strasbourg.fr/CTS_FicheHorairev3/ResultatsFiches.aspx?arret=530D
RIAAR_03,530A,48.60085119695474,7.7546122670173645,Rives de l'Aar,http://applis.cts-strasbourg.fr/CTS_FicheHorairev3/ResultatsFiches.aspx?arret=530A
RIAAR_04,530B,48.60066140569522,7.75459349155426,Rives de l'Aar,http://applis.cts-strasbourg.fr/CTS_FicheHorairev3/ResultatsFiches.aspx?arret=530B
RIEHL_01,532A,48.54284478663138,7.7660733461380005,Riehl,http://applis.cts-strasbourg.fr/CTS_FicheHorairev3/ResultatsFiches.aspx?arret=532A
RIEHL_02,532B,48.542953109265184,7.766065299510956,Riehl,http://applis.cts-strasbourg.fr/CTS_FicheHorairev3/ResultatsFiches.aspx?arret=532B
RIETH_01,533A,48.6026231388838,7.719377428293228,Rieth,http://applis.cts-strasbourg.fr/CTS_FicheHorairev3/ResultatsFiches.aspx?arret=533A
RIETH_02,533B,48.60273488088576,7.719272822141647,Rieth,http://applis.cts-strasbourg.fr/CTS_FicheHorairev3/ResultatsFiches.aspx?arret=533B
ROBOE_01,535A,48.59794394235966,7.777026146650314,Robertsau Boecklin,http://applis.cts-strasbourg.fr/CTS_FicheHorairev3/ResultatsFiches.aspx?arret=535A
ROBOE_02,535B,48.598153256089695,7.777429819107056,Robertsau Boecklin,http://applis.cts-strasbourg.fr/CTS_FicheHorairev3/ResultatsFiches.aspx?arret=535B
ROBOE_03,535D,48.59770801991243,7.776214778423309,Robertsau Boecklin,http://applis.cts-strasbourg.fr/CTS_FicheHorairev3/ResultatsFiches.aspx?arret=535D
ROBOE_04,535E,48.597523538434174,7.776142358779907,Robertsau Boecklin,http://applis.cts-strasbourg.fr/CTS_FicheHorairev3/ResultatsFiches.aspx?arret=535E
ROBOE_05,535C,48.5981993759475,7.779055237770081,Robertsau Boecklin,http://applis.cts-strasbourg.fr/CTS_FicheHorairev3/ResultatsFiches.aspx?arret=535C
ROCHA_01,536A,48.62349154574442,7.7865225076675415,Robertsau Chasseurs,http://applis.cts-strasbourg.fr/CTS_FicheHorairev3/ResultatsFiches.aspx?arret=536A
ROCHE_01,537A,48.64956492563193,7.823182940483093,Rochechouart,http://applis.cts-strasbourg.fr/CTS_FicheHorairev3/ResultatsFiches.aspx?arret=537A
ROCHE_02,537B,48.64934873683757,7.823038101196289,Rochechouart,http://applis.cts-strasbourg.fr/CTS_FicheHorairev3/ResultatsFiches.aspx?arret=537B
RODIN_01,538A,48.61315772619116,7.688710391521454,Rodin,http://applis.cts-strasbourg.fr/CTS_FicheHorairev3/ResultatsFiches.aspx?arret=538A
RODIN_02,538B,48.61319319246998,7.68869161605835,Rodin,http://applis.cts-strasbourg.fr/CTS_FicheHorairev3/ResultatsFiches.aspx?arret=538B
ROEGL_01,539A,48.60297255352814,7.783360183238983,Robertsau Eglise,http://applis.cts-strasbourg.fr/CTS_FicheHorairev3/ResultatsFiches.aspx?arret=539A
ROEGL_02,539B,48.60326609543457,7.783623039722443,Robertsau Eglise,http://applis.cts-strasbourg.fr/CTS_FicheHorairev3/ResultatsFiches.aspx?arret=539B
ROEGL_03,539C,48.60303317022473,7.783442373610683,Robertsau Eglise,http://applis.cts-strasbourg.fr/CTS_FicheHorairev3/ResultatsFiches.aspx?arret=539C
ROEGL_04,539D,48.60330775467115,7.783666207340275,Robertsau Eglise,http://applis.cts-strasbourg.fr/CTS_FicheHorairev3/ResultatsFiches.aspx?arret=539D
ROETH_01,540A,48.56449937512982,7.706775069236755,Roethig,http://applis.cts-strasbourg.fr/CTS_FicheHorairev3/ResultatsFiches.aspx?arret=540A
ROETH_02,540B,48.56455972587305,7.706957459449768,Roethig,http://applis.cts-strasbourg.fr/CTS_FicheHorairev3/ResultatsFiches.aspx?arret=540B
ROETH_05,540C,48.56496087898316,7.706659734249115,Roethig,http://applis.cts-strasbourg.fr/CTS_FicheHorairev3/ResultatsFiches.aspx?arret=540C
ROETH_06,540D,48.56456327591455,7.705836296081543,Roethig,http://applis.cts-strasbourg.fr/CTS_FicheHorairev3/ResultatsFiches.aspx?arret=540D
ROHME_01,541A,48.52790292120495,7.716318368911743,Rohmer,http://applis.cts-strasbourg.fr/CTS_FicheHorairev3/ResultatsFiches.aspx?arret=541A
ROHME_02,541B,48.527979302346104,7.716441750526428,Rohmer,http://applis.cts-strasbourg.fr/CTS_FicheHorairev3/ResultatsFiches.aspx?arret=541B
ROMAI_01,542A,48.57844025832526,7.701088786125183,Romains,http://applis.cts-strasbourg.fr/CTS_FicheHorairev3/ResultatsFiches.aspx?arret=542A
ROMAI_02,542B,48.578481959847565,7.700793743133545,Romains,http://applis.cts-strasbourg.fr/CTS_FicheHorairev3/ResultatsFiches.aspx?arret=542B
ROMEE_01,543A,48.577258405134806,7.768393456935883,Rome,http://applis.cts-strasbourg.fr/CTS_FicheHorairev3/ResultatsFiches.aspx?arret=543A
ROMEE_02,543B,48.57719185852536,7.768160104751587,Rome,http://applis.cts-strasbourg.fr/CTS_FicheHorairev3/ResultatsFiches.aspx?arret=543B
ROREN_01,545A,48.613721637073205,7.792409956455231,Robertsau Renaissance,http://applis.cts-strasbourg.fr/CTS_FicheHorairev3/ResultatsFiches.aspx?arret=545A
ROREN_02,545A,48.613721637073205,7.792409956455231,Robertsau Renaissance,http://applis.cts-strasbourg.fr/CTS_FicheHorairev3/ResultatsFiches.aspx?arret=545A
ROREU_02,546D,48.54622753978476,7.766717076301575,Neuhof Rodolphe Reuss,http://applis.cts-strasbourg.fr/CTS_FicheHorairev3/ResultatsFiches.aspx?arret=546D
ROREU_03,546A,48.545653997031245,7.7656736969947815,Neuhof Rodolphe Reuss,http://applis.cts-strasbourg.fr/CTS_FicheHorairev3/ResultatsFiches.aspx?arret=546A
ROREU_04,546B,48.54560339000562,7.76559054851532,Neuhof Rodolphe Reuss,http://applis.cts-strasbourg.fr/CTS_FicheHorairev3/ResultatsFiches.aspx?arret=546B
ROREU_05,546E,48.54650986958881,7.766977250576019,Neuhof Rodolphe Reuss,http://applis.cts-strasbourg.fr/CTS_FicheHorairev3/ResultatsFiches.aspx?arret=546E
ROREU_06,546F,48.54649566435329,7.76659369468689,Neuhof Rodolphe Reuss,http://applis.cts-strasbourg.fr/CTS_FicheHorairev3/ResultatsFiches.aspx?arret=546F
ROSEA_01,547A,48.51800437166327,7.718847692012787,Roseaux,http://applis.cts-strasbourg.fr/CTS_FicheHorairev3/ResultatsFiches.aspx?arret=547A
ROSEA_02,547B,48.518295742101834,7.719038128852844,Roseaux,http://applis.cts-strasbourg.fr/CTS_FicheHorairev3/ResultatsFiches.aspx?arret=547B
ROSTA_01,549B,48.61729824590746,7.788241803646088,Robertsau Sainte Anne (passage),http://applis.cts-strasbourg.fr/CTS_FicheHorairev3/ResultatsFiches.aspx?arret=549B
ROSTA_02,549C,48.61758904480787,7.788563668727875,Robertsau Sainte Anne,http://applis.cts-strasbourg.fr/CTS_FicheHorairev3/ResultatsFiches.aspx?arret=549C
ROSTA_03,549A,48.61692055946907,7.788107693195343,Robertsau Sainte Anne,http://applis.cts-strasbourg.fr/CTS_FicheHorairev3/ResultatsFiches.aspx?arret=549A
ROTON_01,550A,48.592020713847205,7.725319862365723,Rotonde,http://applis.cts-strasbourg.fr/CTS_FicheHorairev3/ResultatsFiches.aspx?arret=550A
ROTON_02,550B,48.591761700887,7.7247995138168335,Rotonde,http://applis.cts-strasbourg.fr/CTS_FicheHorairev3/ResultatsFiches.aspx?arret=550B
ROTON_03,550C,48.592075709578815,7.724976539611816,Rotonde,http://applis.cts-strasbourg.fr/CTS_FicheHorairev3/ResultatsFiches.aspx?arret=550C
ROTON_05,550E,48.591836211600636,7.725191116333008,Rotonde,http://applis.cts-strasbourg.fr/CTS_FicheHorairev3/ResultatsFiches.aspx?arret=550E
ROTON_06,550F,48.591908948143676,7.724740505218506,Rotonde,http://applis.cts-strasbourg.fr/CTS_FicheHorairev3/ResultatsFiches.aspx?arret=550F
ROTON_08,550I,48.591908948143676,7.725540505218506,Rotonde,http://applis.cts-strasbourg.fr/CTS_FicheHorairev3/ResultatsFiches.aspx?arret=550I
ROTON_09,550H,48.591908948143676,7.725540505218506,Rotonde,http://applis.cts-strasbourg.fr/CTS_FicheHorairev3/ResultatsFiches.aspx?arret=550H
RTWAN_01,553A,48.62427518426209,7.754655182361603,Route de La Wantzenau,http://applis.cts-strasbourg.fr/CTS_FicheHorairev3/ResultatsFiches.aspx?arret=553A
RTWAN_02,553B,48.62392591701396,7.7549877762794495,Route de La Wantzenau,http://applis.cts-strasbourg.fr/CTS_FicheHorairev3/ResultatsFiches.aspx?arret=553B
RTWOL_01,554A,48.58425507045306,7.679091989994049,Route de Wolfisheim,http://applis.cts-strasbourg.fr/CTS_FicheHorairev3/ResultatsFiches.aspx?arret=554A
RTWOL_02,554B,48.58431894627352,7.67882913351059,Route de Wolfisheim,http://applis.cts-strasbourg.fr/CTS_FicheHorairev3/ResultatsFiches.aspx?arret=554B
RUCHA_01,558A,48.6441563832587,7.82151460647583,Rue des Champs,http://applis.cts-strasbourg.fr/CTS_FicheHorairev3/ResultatsFiches.aspx?arret=558A
RUCHA_02,558B,48.64389409319402,7.82102644443512,Rue des Champs,http://applis.cts-strasbourg.fr/CTS_FicheHorairev3/ResultatsFiches.aspx?arret=558B
RUECK_01,559A,48.56408579309869,7.690587937831879,Rue d'Eckbolsheim,http://applis.cts-strasbourg.fr/CTS_FicheHorairev3/ResultatsFiches.aspx?arret=559A
RUECK_02,559B,48.56399881618963,7.690558433532715,Rue d'Eckbolsheim,http://applis.cts-strasbourg.fr/CTS_FicheHorairev3/ResultatsFiches.aspx?arret=559B
RUETA_01,560A,48.49606949457072,7.687012553215027,Rue de l'Etang,http://applis.cts-strasbourg.fr/CTS_FicheHorairev3/ResultatsFiches.aspx?arret=560A
RUETA_02,560B,48.49603927836611,7.687125205993652,Rue de l'Etang,http://applis.cts-strasbourg.fr/CTS_FicheHorairev3/ResultatsFiches.aspx?arret=560B
RUFOR_01,561A,48.52309600648659,7.691784203052521,Rue du Fort,http://applis.cts-strasbourg.fr/CTS_FicheHorairev3/ResultatsFiches.aspx?arret=561A
RUFOR_02,561B,48.522266385610514,7.692395746707916,Rue du Fort,http://applis.cts-strasbourg.fr/CTS_FicheHorairev3/ResultatsFiches.aspx?arret=561B
RUGAR_01,562A,48.610540246051194,7.750744521617889,Rue de la Gare,http://applis.cts-strasbourg.fr/CTS_FicheHorairev3/ResultatsFiches.aspx?arret=562A
RUGAR_02,562B,48.61091709352484,7.750953733921051,Rue de la Gare,http://applis.cts-strasbourg.fr/CTS_FicheHorairev3/ResultatsFiches.aspx?arret=562B
RUHOE_01,563A,48.624298232269595,7.705576121807098,Rue de Hoenheim,http://applis.cts-strasbourg.fr/CTS_FicheHorairev3/ResultatsFiches.aspx?arret=563A
RUHOE_02,563B,48.62389045827494,7.706791162490845,Rue de Hoenheim,http://applis.cts-strasbourg.fr/CTS_FicheHorairev3/ResultatsFiches.aspx?arret=563B
RUJUI_01,564A,48.55452276251542,7.679926156997681,Rue des Juifs,http://applis.cts-strasbourg.fr/CTS_FicheHorairev3/ResultatsFiches.aspx?arret=564A
RUJUI_02,564B,48.55423870203292,7.6799476146698,Rue des Juifs,http://applis.cts-strasbourg.fr/CTS_FicheHorairev3/ResultatsFiches.aspx?arret=564B
RULIN_01,565A,48.54908805380093,7.709607481956482,Rue de Lingolsheim,http://applis.cts-strasbourg.fr/CTS_FicheHorairev3/ResultatsFiches.aspx?arret=565A
RULIN_02,565B,48.54904188912285,7.709752321243286,Rue de Lingolsheim,http://applis.cts-strasbourg.fr/CTS_FicheHorairev3/ResultatsFiches.aspx?arret=565B
RUMUN_01,566A,48.64780880787342,7.7022287249565125,Rue de Mundolsheim,http://applis.cts-strasbourg.fr/CTS_FicheHorairev3/ResultatsFiches.aspx?arret=566A
RUMUN_02,566B,48.647764505423666,7.702199220657349,Rue de Mundolsheim,http://applis.cts-strasbourg.fr/CTS_FicheHorairev3/ResultatsFiches.aspx?arret=566B
RUSTA_01,568A,48.622828457495274,7.699219286441803,Rue du Stade,http://applis.cts-strasbourg.fr/CTS_FicheHorairev3/ResultatsFiches.aspx?arret=568A
RUSTA_02,568B,48.62258378636888,7.699044942855835,Rue du Stade,http://applis.cts-strasbourg.fr/CTS_FicheHorairev3/ResultatsFiches.aspx?arret=568B
SCHAA_01,570A,48.48713093380524,7.715366184711456,Schaal,http://applis.cts-strasbourg.fr/CTS_FicheHorairev3/ResultatsFiches.aspx?arret=570A
SCHAA_02,570B,48.487815357787845,7.715470790863037,Schaal,http://applis.cts-strasbourg.fr/CTS_FicheHorairev3/ResultatsFiches.aspx?arret=570B
SCHEI_01,571A,48.49797041312001,7.731188535690308,Scheidstein,http://applis.cts-strasbourg.fr/CTS_FicheHorairev3/ResultatsFiches.aspx?arret=571A
SCHEI_02,571B,48.49778201296765,7.731032967567444,Scheidstein,http://applis.cts-strasbourg.fr/CTS_FicheHorairev3/ResultatsFiches.aspx?arret=571B
SCHLE_01,572A,48.60798782699666,7.768007098251869,Scheidstein,http://applis.cts-strasbourg.fr/CTS_FicheHorairev3/ResultatsFiches.aspx?arret=572A
SCHLU_01,573A,48.56848769436247,7.751661837100983,Schluthfeld,http://applis.cts-strasbourg.fr/CTS_FicheHorairev3/ResultatsFiches.aspx?arret=573A
SCHLU_02,573B,48.56869358036444,7.751728892326355,Schluthfeld,http://applis.cts-strasbourg.fr/CTS_FicheHorairev3/ResultatsFiches.aspx?arret=573B
SCHMA_01,574A,48.60523836901829,7.747949659824371,Schiltigheim Mairie,http://applis.cts-strasbourg.fr/CTS_FicheHorairev3/ResultatsFiches.aspx?arret=574A
SCHMA_02,574B,48.60482423342655,7.747765928506851,Schiltigheim Mairie,http://applis.cts-strasbourg.fr/CTS_FicheHorairev3/ResultatsFiches.aspx?arret=574B
SCHNO_01,575A,48.579054243220966,7.7121904492378235,Schnockeloch,http://applis.cts-strasbourg.fr/CTS_FicheHorairev3/ResultatsFiches.aspx?arret=575A
SCHNO_02,575B,48.579054243220966,7.71253377199173,Schnockeloch,http://applis.cts-strasbourg.fr/CTS_FicheHorairev3/ResultatsFiches.aspx?arret=575B
SCHOT_01,576A,48.6003944550999,7.780523747205734,Schott,http://applis.cts-strasbourg.fr/CTS_FicheHorairev3/ResultatsFiches.aspx?arret=576A
SCHOT_02,576B,48.60045742363989,7.780565321445465,Schott,http://applis.cts-strasbourg.fr/CTS_FicheHorairev3/ResultatsFiches.aspx?arret=576B
SCHOT_03,576C,48.60039179445564,7.78107762336731,Schott,http://applis.cts-strasbourg.fr/CTS_FicheHorairev3/ResultatsFiches.aspx?arret=576C
SCHUL_01,577A,48.54987639795675,7.752630114555359,Schulmeister,http://applis.cts-strasbourg.fr/CTS_FicheHorairev3/ResultatsFiches.aspx?arret=577A
SCHUL_02,577B,48.55015160529919,7.7522653341293335,Schulmeister,http://applis.cts-strasbourg.fr/CTS_FicheHorairev3/ResultatsFiches.aspx?arret=577B
SCHUM_01,578A,48.558305940991936,7.692843675613403,Schumann,http://applis.cts-strasbourg.fr/CTS_FicheHorairev3/ResultatsFiches.aspx?arret=578A
SCHUM_02,578B,48.5587604004606,7.693130671977997,Schumann,http://applis.cts-strasbourg.fr/CTS_FicheHorairev3/ResultatsFiches.aspx?arret=578B
SDMWA_01,579A,48.54261215855226,7.77119368314743,Stade Michel Walter,http://applis.cts-strasbourg.fr/CTS_FicheHorairev3/ResultatsFiches.aspx?arret=579A
SDMWA_02,579B,48.54301348571458,7.771663069725037,Stade Michel Walter,http://applis.cts-strasbourg.fr/CTS_FicheHorairev3/ResultatsFiches.aspx?arret=579B
SENEE_01,581A,48.51685664009718,7.655400037765503,Séné,http://applis.cts-strasbourg.fr/CTS_FicheHorairev3/ResultatsFiches.aspx?arret=581A
SENEE_02,581B,48.51673049463938,7.653442025184631,Séné,http://applis.cts-strasbourg.fr/CTS_FicheHorairev3/ResultatsFiches.aspx?arret=581B
SESOC_01,583A,48.57619187425948,7.756817042827606,Sécurité Sociale,http://applis.cts-strasbourg.fr/CTS_FicheHorairev3/ResultatsFiches.aspx?arret=583A
SESOC_02,583B,48.576055228910654,7.756747305393219,Sécurité Sociale,http://applis.cts-strasbourg.fr/CTS_FicheHorairev3/ResultatsFiches.aspx?arret=583B
SOCAN_01,584A,48.63436211398222,7.751382887363434,Souffelweyersheim Canal(Départ),http://applis.cts-strasbourg.fr/CTS_FicheHorairev3/ResultatsFiches.aspx?arret=584A
SOCAN_02,584B,48.634165358362495,7.751710116863251,Souffelweyersheim Canal (Passage),http://applis.cts-strasbourg.fr/CTS_FicheHorairev3/ResultatsFiches.aspx?arret=584B
SOCAN_03,584C,48.63405014075149,7.7518898248672485,Souffelweyersheim Canal ,http://applis.cts-strasbourg.fr/CTS_FicheHorairev3/ResultatsFiches.aspx?arret=584C
SOCEN_01,585A,48.6342805757104,7.737773358821869,Souffelweyersheim Centre,http://applis.cts-strasbourg.fr/CTS_FicheHorairev3/ResultatsFiches.aspx?arret=585A
SOCEN_02,585B,48.634532280385905,7.736475169658661,Souffelweyersheim Centre,http://applis.cts-strasbourg.fr/CTS_FicheHorairev3/ResultatsFiches.aspx?arret=585B
SOECO_01,586A,48.63350950075504,7.7414023876190186,Souffelweyersheim Ecole,http://applis.cts-strasbourg.fr/CTS_FicheHorairev3/ResultatsFiches.aspx?arret=586A
SOECO_02,586B,48.63352899934741,7.740699648857117,Souffelweyersheim Ecole,http://applis.cts-strasbourg.fr/CTS_FicheHorairev3/ResultatsFiches.aspx?arret=586B
SOULT_01,589A,48.56525819173519,7.778442353010178,Soultz,http://applis.cts-strasbourg.fr/CTS_FicheHorairev3/ResultatsFiches.aspx?arret=589A
SOULT_02,589B,48.565438353537466,7.778538912534714,Soultz,http://applis.cts-strasbourg.fr/CTS_FicheHorairev3/ResultatsFiches.aspx?arret=589B
SPORT_01,590A,48.56420472046695,7.693828046321869,Sports,http://applis.cts-strasbourg.fr/CTS_FicheHorairev3/ResultatsFiches.aspx?arret=590A
SPORT_02,590B,48.56417986999521,7.694034576416016,Sports,http://applis.cts-strasbourg.fr/CTS_FicheHorairev3/ResultatsFiches.aspx?arret=590B
SQCHA_01,591A,48.603644770842244,7.750283181667328,Square du Château,http://applis.cts-strasbourg.fr/CTS_FicheHorairev3/ResultatsFiches.aspx?arret=591A
SQCHA_02,591B,48.60334857064811,7.750049829483032,Square du Château,http://applis.cts-strasbourg.fr/CTS_FicheHorairev3/ResultatsFiches.aspx?arret=591B
STANT_01,592A,48.59781977278793,7.709537744522095,Saint Antoine,http://applis.cts-strasbourg.fr/CTS_FicheHorairev3/ResultatsFiches.aspx?arret=592A
STANT_02,592B,48.59772930619348,7.709580659866333,Saint Antoine,http://applis.cts-strasbourg.fr/CTS_FicheHorairev3/ResultatsFiches.aspx?arret=592B
STATI_01,594A,48.50766141234759,7.609646916389465,Station de Pompage,http://applis.cts-strasbourg.fr/CTS_FicheHorairev3/ResultatsFiches.aspx?arret=594A
STATI_02,594B,48.508434408774484,7.611006796360016,Station de Pompage,http://applis.cts-strasbourg.fr/CTS_FicheHorairev3/ResultatsFiches.aspx?arret=594B
STAUR_01,595A,48.581756752818976,7.732151448726654,Sainte Aurélie,http://applis.cts-strasbourg.fr/CTS_FicheHorairev3/ResultatsFiches.aspx?arret=595A
STAUR_02,595B,48.581439131147086,7.732250690460205,Sainte Aurélie,http://applis.cts-strasbourg.fr/CTS_FicheHorairev3/ResultatsFiches.aspx?arret=595B
STCHR_01,596A,48.55106066665701,7.766293287277222,Saint Christophe,http://applis.cts-strasbourg.fr/CTS_FicheHorairev3/ResultatsFiches.aspx?arret=596A
STCHR_02,596B,48.5512204609111,7.7664515376091,Saint Christophe,http://applis.cts-strasbourg.fr/CTS_FicheHorairev3/ResultatsFiches.aspx?arret=596B
STCHR_03,596C,48.55144949846196,7.767001390457153,Saint Christophe,http://applis.cts-strasbourg.fr/CTS_FicheHorairev3/ResultatsFiches.aspx?arret=596C
STCHR_04,596D,48.55185430648147,7.766395211219788,Saint Christophe,http://applis.cts-strasbourg.fr/CTS_FicheHorairev3/ResultatsFiches.aspx?arret=596D
STCHR_05,596E,48.551312786250115,7.765966057777405,Saint Christophe,http://applis.cts-strasbourg.fr/CTS_FicheHorairev3/ResultatsFiches.aspx?arret=596E
STCHR_06,596F,48.55135184691976,7.76609480381012,Saint Christophe,http://applis.cts-strasbourg.fr/CTS_FicheHorairev3/ResultatsFiches.aspx?arret=596F
STFLO_01,597A,48.59373797166999,7.72101491689682,Saint Florent,http://applis.cts-strasbourg.fr/CTS_FicheHorairev3/ResultatsFiches.aspx?arret=597A
STFLO_02,597B,48.593572989723434,7.721291184425354,Saint Florent,http://applis.cts-strasbourg.fr/CTS_FicheHorairev3/ResultatsFiches.aspx?arret=597B
STFLO_03,597C,48.591612679130115,7.720414102077484,Saint Florent,http://applis.cts-strasbourg.fr/CTS_FicheHorairev3/ResultatsFiches.aspx?arret=597C
STFLO_04,597D,48.5915807458393,7.72014319896698,Saint Florent,http://applis.cts-strasbourg.fr/CTS_FicheHorairev3/ResultatsFiches.aspx?arret=597D
STFRA_01,598A,48.60353303085329,7.787217199802399,Saint François,http://applis.cts-strasbourg.fr/CTS_FicheHorairev3/ResultatsFiches.aspx?arret=598A
STFRA_02,598B,48.60368556474486,7.787380814552307,Saint François,http://applis.cts-strasbourg.fr/CTS_FicheHorairev3/ResultatsFiches.aspx?arret=598B
STGAL_01,599A,48.58023694166214,7.7199044823646545,Saint Gall,http://applis.cts-strasbourg.fr/CTS_FicheHorairev3/ResultatsFiches.aspx?arret=599A
STGAL_02,599B,48.58023605442684,7.720360457897186,Saint Gall,http://applis.cts-strasbourg.fr/CTS_FicheHorairev3/ResultatsFiches.aspx?arret=599B
STGUI_01,600A,48.5828346997569,7.757519781589508,Saint Guillaume,http://applis.cts-strasbourg.fr/CTS_FicheHorairev3/ResultatsFiches.aspx?arret=600A
STGUI_02,600B,48.58280098653838,7.757623046636581,Saint Guillaume,http://applis.cts-strasbourg.fr/CTS_FicheHorairev3/ResultatsFiches.aspx?arret=600B
STHEL_01,610A,48.59719359872588,7.741842269897461,Sainte Hélène,http://applis.cts-strasbourg.fr/CTS_FicheHorairev3/ResultatsFiches.aspx?arret=610A
STHEL_02,610B,48.59681576189699,7.742011249065399,Sainte Hélène,http://applis.cts-strasbourg.fr/CTS_FicheHorairev3/ResultatsFiches.aspx?arret=610B
STHEL_03,610C,48.59734437789222,7.7410537004470825,Sainte Hélène,http://applis.cts-strasbourg.fr/CTS_FicheHorairev3/ResultatsFiches.aspx?arret=610C
STHEL_04,610D,48.59704281910953,7.741431891918182,Sainte Hélène,http://applis.cts-strasbourg.fr/CTS_FicheHorairev3/ResultatsFiches.aspx?arret=610D
STIGN_01,611A,48.531441201027754,7.7616530656814575,Saint Ignace,http://applis.cts-strasbourg.fr/CTS_FicheHorairev3/ResultatsFiches.aspx?arret=611A
STIGN_02,611B,48.53208062281087,7.761765718460083,Saint Ignace,http://applis.cts-strasbourg.fr/CTS_FicheHorairev3/ResultatsFiches.aspx?arret=611B
STJUN_01,612A,48.607383483822304,7.723195552825928,Saint Junien,http://applis.cts-strasbourg.fr/CTS_FicheHorairev3/ResultatsFiches.aspx?arret=612A
STJUN_02,612B,48.60728948731479,7.723182141780853,Saint Junien,http://applis.cts-strasbourg.fr/CTS_FicheHorairev3/ResultatsFiches.aspx?arret=612B
STMAR_01,613A,48.581361056240596,7.736518085002899,Sainte Marguerite,http://applis.cts-strasbourg.fr/CTS_FicheHorairev3/ResultatsFiches.aspx?arret=613A
STMAR_02,613B,48.58130959771356,7.737046480178833,Sainte Marguerite,http://applis.cts-strasbourg.fr/CTS_FicheHorairev3/ResultatsFiches.aspx?arret=613B
STMAU_01,614A,48.58572951673214,7.772153913974762,Saint Maurice,http://applis.cts-strasbourg.fr/CTS_FicheHorairev3/ResultatsFiches.aspx?arret=614A
STMAU_02,614B,48.58572064534284,7.771992981433868,Saint Maurice,http://applis.cts-strasbourg.fr/CTS_FicheHorairev3/ResultatsFiches.aspx?arret=614B
STNAZ_01,615A,48.53068631769609,7.779913544654846,Saint Nazaire,http://applis.cts-strasbourg.fr/CTS_FicheHorairev3/ResultatsFiches.aspx?arret=615A
STNAZ_02,615B,48.53064546486538,7.780171036720276,Saint Nazaire,http://applis.cts-strasbourg.fr/CTS_FicheHorairev3/ResultatsFiches.aspx?arret=615B
STNIC_01,616A,48.57850059243154,7.74822324514389,Saint Nicolas,http://applis.cts-strasbourg.fr/CTS_FicheHorairev3/ResultatsFiches.aspx?arret=616A
STNIC_02,616B,48.578385247753815,7.7480193972587585,Saint Nicolas,http://applis.cts-strasbourg.fr/CTS_FicheHorairev3/ResultatsFiches.aspx?arret=616B
STOSK_01,618A,48.47928339725619,7.707862704992294,Stoskopf,http://applis.cts-strasbourg.fr/CTS_FicheHorairev3/ResultatsFiches.aspx?arret=618A
STOSK_02,618B,48.479318068472466,7.707847952842712,Stoskopf,http://applis.cts-strasbourg.fr/CTS_FicheHorairev3/ResultatsFiches.aspx?arret=618B
STPAU_01,619A,48.46934155980997,7.728728950023651,Saint Paul,http://applis.cts-strasbourg.fr/CTS_FicheHorairev3/ResultatsFiches.aspx?arret=619A
STPAU_02,619B,48.46931132767872,7.728683352470398,Saint Paul,http://applis.cts-strasbourg.fr/CTS_FicheHorairev3/ResultatsFiches.aspx?arret=619B
STTHO_01,620A,48.578846624885536,7.744371592998505,Saint Thomas,http://applis.cts-strasbourg.fr/CTS_FicheHorairev3/ResultatsFiches.aspx?arret=620A
STTHO_02,620B,48.578880340741605,7.74372786283493,Saint Thomas,http://applis.cts-strasbourg.fr/CTS_FicheHorairev3/ResultatsFiches.aspx?arret=620B
STUTZ_01,622A,48.59836256895242,7.714116275310516,Stutzheim,http://applis.cts-strasbourg.fr/CTS_FicheHorairev3/ResultatsFiches.aspx?arret=622A
STUTZ_02,622B,48.598321770750616,7.714008986949921,Stutzheim,http://applis.cts-strasbourg.fr/CTS_FicheHorairev3/ResultatsFiches.aspx?arret=622B
STYRI_01,623A,48.65218304011153,7.8252241015434265,Saint Yrieix,http://applis.cts-strasbourg.fr/CTS_FicheHorairev3/ResultatsFiches.aspx?arret=623A
STYRI_02,623B,48.65208735507217,7.825068533420563,Saint Yrieix,http://applis.cts-strasbourg.fr/CTS_FicheHorairev3/ResultatsFiches.aspx?arret=623B
TANNE_01,624A,48.56151192333001,7.694769501686096,Tanneries,http://applis.cts-strasbourg.fr/CTS_FicheHorairev3/ResultatsFiches.aspx?arret=624A
TANNE_02,624B,48.56178884250321,7.695853114128113,Tanneries,http://applis.cts-strasbourg.fr/CTS_FicheHorairev3/ResultatsFiches.aspx?arret=624B
TAULE_01,626A,48.588101390317064,7.769788432506175,Tauler,http://applis.cts-strasbourg.fr/CTS_FicheHorairev3/ResultatsFiches.aspx?arret=626A
TAULE_02,626C,48.58835892788342,7.769442200660706,Tauler,http://applis.cts-strasbourg.fr/CTS_FicheHorairev3/ResultatsFiches.aspx?arret=626C
TAULE_03,626B,48.588713763715454,7.769420742988586,Tauler,http://applis.cts-strasbourg.fr/CTS_FicheHorairev3/ResultatsFiches.aspx?arret=626B
TAULE_04,626D,48.58813538002993,7.769812345504761,Tauler,http://applis.cts-strasbourg.fr/CTS_FicheHorairev3/ResultatsFiches.aspx?arret=626D
TECHA_01,708A,48.53897520804064,7.646092772483826,Terres de la chapelle,http://applis.cts-strasbourg.fr/CTS_FicheHorairev3/ResultatsFiches.aspx?arret=708A
TECHA_02,708B,48.53906577980516,7.646036446094513,Terres de la chapelle,http://applis.cts-strasbourg.fr/CTS_FicheHorairev3/ResultatsFiches.aspx?arret=708B
TEMPL_01,627A,48.66933342133228,7.708062529563904,Temple,http://applis.cts-strasbourg.fr/CTS_FicheHorairev3/ResultatsFiches.aspx?arret=627A
TEMPL_02,627B,48.669367076794124,7.707772850990295,Temple,http://applis.cts-strasbourg.fr/CTS_FicheHorairev3/ResultatsFiches.aspx?arret=627B
TIERG_03,628A,48.553924458266124,7.689419835805893,Tiergaertel,http://applis.cts-strasbourg.fr/CTS_FicheHorairev3/ResultatsFiches.aspx?arret=628A
TIERG_04,628B,48.553984821627004,7.6896733045578,Lingolsheim Tiergaertel,http://applis.cts-strasbourg.fr/CTS_FicheHorairev3/ResultatsFiches.aspx?arret=628B
TINTO_01,629A,48.5650079166394,7.72807314991951,Tintoret,http://applis.cts-strasbourg.fr/CTS_FicheHorairev3/ResultatsFiches.aspx?arret=629A
TITIE_01,630A,48.564557950852226,7.7257369458675385,Titien,http://applis.cts-strasbourg.fr/CTS_FicheHorairev3/ResultatsFiches.aspx?arret=630A
TITIE_02,630B,48.56459522627663,7.726752161979675,Titien,http://applis.cts-strasbourg.fr/CTS_FicheHorairev3/ResultatsFiches.aspx?arret=630B
TOSTI_01,631A,48.52228948016565,7.740898132324219,Tobias Stimmer,http://applis.cts-strasbourg.fr/CTS_FicheHorairev3/ResultatsFiches.aspx?arret=631A
TOSTI_02,631B,48.522209537429866,7.74087131023407,Tobias Stimmer,http://applis.cts-strasbourg.fr/CTS_FicheHorairev3/ResultatsFiches.aspx?arret=631B
TOURA_01,632A,48.5628059749166,7.688141763210297,Touraine,http://applis.cts-strasbourg.fr/CTS_FicheHorairev3/ResultatsFiches.aspx?arret=632A
TOURA_02,632B,48.563079336859765,7.688353657722473,Touraine,http://applis.cts-strasbourg.fr/CTS_FicheHorairev3/ResultatsFiches.aspx?arret=632B
TRAVA_01,633A,48.58975341835817,7.741962969303131,Travail,http://applis.cts-strasbourg.fr/CTS_FicheHorairev3/ResultatsFiches.aspx?arret=633A
TRAVA_02,633B,48.58997341079655,7.7420783042907715,Travail,http://applis.cts-strasbourg.fr/CTS_FicheHorairev3/ResultatsFiches.aspx?arret=633B
TRAVA_03,633C,48.589586649258585,7.742287516593933,Travail,http://applis.cts-strasbourg.fr/CTS_FicheHorairev3/ResultatsFiches.aspx?arret=633C
TREPI_01,634A,48.60683723752135,7.7359360456466675,Trois Epis,http://applis.cts-strasbourg.fr/CTS_FicheHorairev3/ResultatsFiches.aspx?arret=634A
TREPI_02,634B,48.606999515854284,7.736029922962189,Trois Epis,http://applis.cts-strasbourg.fr/CTS_FicheHorairev3/ResultatsFiches.aspx?arret=634B
TRFON_01,635A,48.586873912893495,7.749583125114441,Tribunal - Fonderie,http://applis.cts-strasbourg.fr/CTS_FicheHorairev3/ResultatsFiches.aspx?arret=635A
TRFON_02,635B,48.58743634305948,7.748816013336182,Tribunal - Fonderie,http://applis.cts-strasbourg.fr/CTS_FicheHorairev3/ResultatsFiches.aspx?arret=635B
UNELS_01,637A,48.5621829171743,7.72987425327301,Unterelsau,http://applis.cts-strasbourg.fr/CTS_FicheHorairev3/ResultatsFiches.aspx?arret=637A
UNIVE_01,638A,48.58268476448108,7.764064371585846,Universités,http://applis.cts-strasbourg.fr/CTS_FicheHorairev3/ResultatsFiches.aspx?arret=638A
UNIVE_02,638B,48.58285510511509,7.7638497948646545,Universités,http://applis.cts-strasbourg.fr/CTS_FicheHorairev3/ResultatsFiches.aspx?arret=638B
UNJAE_01,639A,48.6316393734665,7.804740071296692,Unterjaegerhof,http://applis.cts-strasbourg.fr/CTS_FicheHorairev3/ResultatsFiches.aspx?arret=639A
UNJAE_02,639B,48.63157201213815,7.80467301607132,Unterjaegerhof,http://applis.cts-strasbourg.fr/CTS_FicheHorairev3/ResultatsFiches.aspx?arret=639B
VANNE_01,640A,48.5543878339851,7.759434878826141,Vanneaux,http://applis.cts-strasbourg.fr/CTS_FicheHorairev3/ResultatsFiches.aspx?arret=640A
VANNE_02,640B,48.55430261578054,7.760389745235443,Vanneaux,http://applis.cts-strasbourg.fr/CTS_FicheHorairev3/ResultatsFiches.aspx?arret=640B
VEGAR_01,642A,48.666699368884984,7.717377841472626,Vendenheim Gare,http://applis.cts-strasbourg.fr/CTS_FicheHorairev3/ResultatsFiches.aspx?arret=642A
VEGAR_02,642B,48.66639379571747,7.717583030462265,Vendenheim Gare,http://applis.cts-strasbourg.fr/CTS_FicheHorairev3/ResultatsFiches.aspx?arret=642B
VEMAI_01,643A,48.66557626766995,7.7114032208919525,Vendenheim Mairie,http://applis.cts-strasbourg.fr/CTS_FicheHorairev3/ResultatsFiches.aspx?arret=643A
VEMAI_02,643B,48.665232600782815,7.7115292847156525,Vendenheim Mairie,http://applis.cts-strasbourg.fr/CTS_FicheHorairev3/ResultatsFiches.aspx?arret=643B
VERDN_01,644A,48.588030702520484,7.77400329709053,Verdun,http://applis.cts-strasbourg.fr/CTS_FicheHorairev3/ResultatsFiches.aspx?arret=644A
VERDN_02,644B,48.58813360583666,7.772957235574722,Verdun,http://applis.cts-strasbourg.fr/CTS_FicheHorairev3/ResultatsFiches.aspx?arret=644B
VERDO_01,645A,48.54958698474972,7.736461758613586,Verdon,http://applis.cts-strasbourg.fr/CTS_FicheHorairev3/ResultatsFiches.aspx?arret=645A
VERDO_02,645B,48.549720150541376,7.735616862773895,Verdon,http://applis.cts-strasbourg.fr/CTS_FicheHorairev3/ResultatsFiches.aspx?arret=645B
VERDU_01,646A,48.52234455175468,7.68350824713707,Verdun,http://applis.cts-strasbourg.fr/CTS_FicheHorairev3/ResultatsFiches.aspx?arret=646A
VERDU_02,646B,48.523537458736925,7.683162242174149,Verdun,http://applis.cts-strasbourg.fr/CTS_FicheHorairev3/ResultatsFiches.aspx?arret=646B
VERMA_01,647A,48.54557941823898,7.70965576171875,Vernois Mangold,http://applis.cts-strasbourg.fr/CTS_FicheHorairev3/ResultatsFiches.aspx?arret=647A
VERMA_02,647B,48.545456895698884,7.709797918796539,Vernois Mangold,http://applis.cts-strasbourg.fr/CTS_FicheHorairev3/ResultatsFiches.aspx?arret=647B
VETIL_01,648A,48.66870990555199,7.71046981215477,Vendenheim au Tilleul,http://applis.cts-strasbourg.fr/CTS_FicheHorairev3/ResultatsFiches.aspx?arret=648A
VETIL_02,648B,48.668701048738185,7.710371911525726,Vendenheim au Tilleul,http://applis.cts-strasbourg.fr/CTS_FicheHorairev3/ResultatsFiches.aspx?arret=648B
VIGNE_01,649A,48.55731002139517,7.679260969161987,Vignes,http://applis.cts-strasbourg.fr/CTS_FicheHorairev3/ResultatsFiches.aspx?arret=649A
VIGNE_02,649B,48.55739345926182,7.6792797446250916,Vignes,http://applis.cts-strasbourg.fr/CTS_FicheHorairev3/ResultatsFiches.aspx?arret=649B
VIHUG_01,650A,48.62267066248435,7.730568945407867,Victor Hugo,http://applis.cts-strasbourg.fr/CTS_FicheHorairev3/ResultatsFiches.aspx?arret=650A
VIHUG_02,650B,48.62258201338536,7.7307164669036865,Victor Hugo,http://applis.cts-strasbourg.fr/CTS_FicheHorairev3/ResultatsFiches.aspx?arret=650B
VIMOU_01,651A,48.5178675691109,7.67955869436264,Vieux Moulin,http://applis.cts-strasbourg.fr/CTS_FicheHorairev3/ResultatsFiches.aspx?arret=651A
VIMOU_02,651B,48.51783203591997,7.6795801520347595,Vieux Moulin,http://applis.cts-strasbourg.fr/CTS_FicheHorairev3/ResultatsFiches.aspx?arret=651B
VIRGI_01,652A,48.58143558229033,7.69978255033493,Virgile,http://applis.cts-strasbourg.fr/CTS_FicheHorairev3/ResultatsFiches.aspx?arret=652A
VIRGI_02,652B,48.58141961243177,7.700096368789673,Virgile,http://applis.cts-strasbourg.fr/CTS_FicheHorairev3/ResultatsFiches.aspx?arret=652B
VIRGI_03,652A,48.581444797713004,7.699851737434415,Virgile,http://applis.cts-strasbourg.fr/CTS_FicheHorairev3/ResultatsFiches.aspx?arret=652A
VIRGI_04,652B,48.58140506256567,7.699999845998036,Virgile,http://applis.cts-strasbourg.fr/CTS_FicheHorairev3/ResultatsFiches.aspx?arret=652B
VISCO_01,653A,48.527119563782364,7.721473574638367,Vincent Scotto,http://applis.cts-strasbourg.fr/CTS_FicheHorairev3/ResultatsFiches.aspx?arret=653A
VISCO_02,653B,48.527243907039434,7.721570134162903,Vincent Scotto,http://applis.cts-strasbourg.fr/CTS_FicheHorairev3/ResultatsFiches.aspx?arret=653B
VOLTA_01,654A,48.61423943648713,7.748386859893799,Voltaire,http://applis.cts-strasbourg.fr/CTS_FicheHorairev3/ResultatsFiches.aspx?arret=654A
VOLTA_02,654B,48.614182691604974,7.748936712741852,Voltaire,http://applis.cts-strasbourg.fr/CTS_FicheHorairev3/ResultatsFiches.aspx?arret=654B
VOOBE_01,655A,48.589650518340484,7.750983238220215,Vosges Oberlin,http://applis.cts-strasbourg.fr/CTS_FicheHorairev3/ResultatsFiches.aspx?arret=655A
VOOBE_02,655B,48.58969309768357,7.751272916793823,Vosges Oberlin,http://applis.cts-strasbourg.fr/CTS_FicheHorairev3/ResultatsFiches.aspx?arret=655B
VOSGE_01,656A,48.60408995469294,7.6900166273117065,Vosges,http://applis.cts-strasbourg.fr/CTS_FicheHorairev3/ResultatsFiches.aspx?arret=656A
VOSGE_02,656B,48.6039675738661,7.690201699733734,Vosges,http://applis.cts-strasbourg.fr/CTS_FicheHorairev3/ResultatsFiches.aspx?arret=656B
WACKE_01,657C,48.59830225855549,7.761213183403015,Wacken,http://applis.cts-strasbourg.fr/CTS_FicheHorairev3/ResultatsFiches.aspx?arret=657C
WACKE_05,657A,48.598674762797216,7.76072233915329,Wacken,http://applis.cts-strasbourg.fr/CTS_FicheHorairev3/ResultatsFiches.aspx?arret=657A
WACKE_06,657B,48.598513344629716,7.760558724403381,Wacken,http://applis.cts-strasbourg.fr/CTS_FicheHorairev3/ResultatsFiches.aspx?arret=657B
WAGNE_01,701A,48.586985689734014,7.777440547943115,Wagner,http://applis.cts-strasbourg.fr/CTS_FicheHorairev3/ResultatsFiches.aspx?arret=701A
WAGNE_02,701B,48.58722343647738,7.7759599685668945,Wagner,http://applis.cts-strasbourg.fr/CTS_FicheHorairev3/ResultatsFiches.aspx?arret=701B
WALDH_01,658A,48.51001590495355,7.729809880256653,Waldhorn,http://applis.cts-strasbourg.fr/CTS_FicheHorairev3/ResultatsFiches.aspx?arret=658A
WALDH_02,658B,48.50998214319116,7.729530930519104,Waldhorn,http://applis.cts-strasbourg.fr/CTS_FicheHorairev3/ResultatsFiches.aspx?arret=658B
WASSE_01,659A,48.584253296123585,7.688098847866058,Wasselonne,http://applis.cts-strasbourg.fr/CTS_FicheHorairev3/ResultatsFiches.aspx?arret=659A
WASSE_02,659B,48.58445911792985,7.687873542308807,Wasselonne,http://applis.cts-strasbourg.fr/CTS_FicheHorairev3/ResultatsFiches.aspx?arret=659B
WATTW_01,660A,48.56120038744799,7.785896211862564,Wattwiller,http://applis.cts-strasbourg.fr/CTS_FicheHorairev3/ResultatsFiches.aspx?arret=660A
WEEBE_01,661A,48.54609880397392,7.751810699701309,Weeber,http://applis.cts-strasbourg.fr/CTS_FicheHorairev3/ResultatsFiches.aspx?arret=661A
WEEBE_02,661B,48.546101467476795,7.752128541469574,Weeber,http://applis.cts-strasbourg.fr/CTS_FicheHorairev3/ResultatsFiches.aspx?arret=661B
WELSC_01,662A,48.533599217183706,7.768401503562927,Welsch,http://applis.cts-strasbourg.fr/CTS_FicheHorairev3/ResultatsFiches.aspx?arret=662A
WICHA_01,663A,48.4767798950118,7.706887722015381,Wibolsheim Chapelle,http://applis.cts-strasbourg.fr/CTS_FicheHorairev3/ResultatsFiches.aspx?arret=663A
WICHA_02,663B,48.47707328057178,7.706992328166962,Wibolsheim Chapelle,http://applis.cts-strasbourg.fr/CTS_FicheHorairev3/ResultatsFiches.aspx?arret=663B
WICHU_01,664A,48.57390967104655,7.766615152359009,Winston Churchill,http://applis.cts-strasbourg.fr/CTS_FicheHorairev3/ResultatsFiches.aspx?arret=664A
WICHU_02,664B,48.57407649187865,7.766816318035126,Winston Churchill,http://applis.cts-strasbourg.fr/CTS_FicheHorairev3/ResultatsFiches.aspx?arret=664B
WIHRE_01,665C,48.55474823438806,7.712828814983368,Wihrel,http://applis.cts-strasbourg.fr/CTS_FicheHorairev3/ResultatsFiches.aspx?arret=665C
WIHRE_02,665D,48.55461330645902,7.712753713130951,Wihrel,http://applis.cts-strasbourg.fr/CTS_FicheHorairev3/ResultatsFiches.aspx?arret=665D
WIHRE_03,665A,48.55552938901022,7.71277517080307,Wihrel,http://applis.cts-strasbourg.fr/CTS_FicheHorairev3/ResultatsFiches.aspx?arret=665A
WIHRE_04,665B,48.554540516242646,7.71289587020874,Wihrel,http://applis.cts-strasbourg.fr/CTS_FicheHorairev3/ResultatsFiches.aspx?arret=665B
WILSO_01,667C,48.588121186482034,7.739012539386749,Wilson,http://applis.cts-strasbourg.fr/CTS_FicheHorairev3/ResultatsFiches.aspx?arret=667C
WILSO_02,667A,48.58796683139127,7.739221751689911,Wilson,http://applis.cts-strasbourg.fr/CTS_FicheHorairev3/ResultatsFiches.aspx?arret=667A
WILSO_03,667B,48.58790473438268,7.738969624042511,Wilson,http://applis.cts-strasbourg.fr/CTS_FicheHorairev3/ResultatsFiches.aspx?arret=667B
WILSO_04,667D,48.58794554099693,7.738355398178101,Wilson,http://applis.cts-strasbourg.fr/CTS_FicheHorairev3/ResultatsFiches.aspx?arret=667D
WISSE_01,668A,48.58997163666783,7.741072475910187,Wissembourg,http://applis.cts-strasbourg.fr/CTS_FicheHorairev3/ResultatsFiches.aspx?arret=668A
WISSE_02,668B,48.5899893779524,7.741367518901825,Wissembourg,http://applis.cts-strasbourg.fr/CTS_FicheHorairev3/ResultatsFiches.aspx?arret=668B
WOLMA_01,670A,48.583410482570095,7.666169106960297,Wolfisheim Mairie,http://applis.cts-strasbourg.fr/CTS_FicheHorairev3/ResultatsFiches.aspx?arret=670A
WOLMA_02,670B,48.58384697302813,7.666485607624054,Wolfisheim Mairie,http://applis.cts-strasbourg.fr/CTS_FicheHorairev3/ResultatsFiches.aspx?arret=670B
WOLSD_01,671A,48.57901697845433,7.666614353656769,Wolfisheim Stade,http://applis.cts-strasbourg.fr/CTS_FicheHorairev3/ResultatsFiches.aspx?arret=671A
YPRES_01,673A,48.58623163482773,7.780677974224091,Ypres,http://applis.cts-strasbourg.fr/CTS_FicheHorairev3/ResultatsFiches.aspx?arret=673A
YPRES_02,673B,48.586164212899924,7.780739665031433,Ypres,http://applis.cts-strasbourg.fr/CTS_FicheHorairev3/ResultatsFiches.aspx?arret=673B
ZACMA_01,674A,48.63415472290175,7.715307176113129,Z.A.C des Maréchaux,http://applis.cts-strasbourg.fr/CTS_FicheHorairev3/ResultatsFiches.aspx?arret=674A
ZOCOM_01,676A,48.656657884810784,7.722085118293762,Zone Commerciale,http://applis.cts-strasbourg.fr/CTS_FicheHorairev3/ResultatsFiches.aspx?arret=676A
ZOCOM_02,676B,48.65653208783186,7.721918821334839,Zone Commerciale,http://applis.cts-strasbourg.fr/CTS_FicheHorairev3/ResultatsFiches.aspx?arret=676B
ZORNN_01,677A,48.60930594004602,7.757629752159119,Zorn,http://applis.cts-strasbourg.fr/CTS_FicheHorairev3/ResultatsFiches.aspx?arret=677A
ZORNN_02,677B,48.60923500200246,7.757892608642578,Zorn,http://applis.cts-strasbourg.fr/CTS_FicheHorairev3/ResultatsFiches.aspx?arret=677B
GACTN_01,230,48.585101418522214,7.7352601289749146,Gare Centrale,http://applis.cts-strasbourg.fr/CTS_FicheHorairev3/ResultatsFiches.aspx?arret=230
GACTN_02,230F,48.585171503313916,7.735399603843689,Gare Centrale,http://applis.cts-strasbourg.fr/CTS_FicheHorairev3/ResultatsFiches.aspx?arret=230F
CAMPI_01,36A,48.57330360988069,7.71833673119545,Camping,http://applis.cts-strasbourg.fr/CTS_FicheHorairev3/ResultatsFiches.aspx?arret=36A
CAMPI_02,36B,48.57337149264195,7.719248682260513,Camping,http://applis.cts-strasbourg.fr/CTS_FicheHorairev3/ResultatsFiches.aspx?arret=36B
MOVER_02,410B,48.57458227507969,7.727054581046104,Montagne Verte,http://applis.cts-strasbourg.fr/CTS_FicheHorairev3/ResultatsFiches.aspx?arret=410B
WACKE_04,657D,48.59845658207462,7.761968225240707,Wacken,http://applis.cts-strasbourg.fr/CTS_FicheHorairev3/ResultatsFiches.aspx?arret=657D
ILLIX_05,290E,48.52990566768493,7.724413275718689,Illkirch Lixenbuhl,http://applis.cts-strasbourg.fr/CTS_FicheHorairev3/ResultatsFiches.aspx?arret=290E
ARBRI_05,32D,48.56853117897582,7.776861190795898,Aristide Briand ,http://applis.cts-strasbourg.fr/CTS_FicheHorairev3/ResultatsFiches.aspx?arret=32D
OBSER_F3,438D,48.581587295694916,7.770411819219589,Observatoire,http://applis.cts-strasbourg.fr/CTS_FicheHorairev3/ResultatsFiches.aspx?arret=438D
ROTON_04,550D,48.59174928242405,7.725081145763397,Rotonde ,http://applis.cts-strasbourg.fr/CTS_FicheHorairev3/ResultatsFiches.aspx?arret=550D
MIMIT_02,394B,48.61240805189394,7.696913927793503,Mittelhausbergen Mittelberg,http://applis.cts-strasbourg.fr/CTS_FicheHorairev3/ResultatsFiches.aspx?arret=394B
CIIDO_01,99A,48.61294138135093,7.773647904396057,Cité de l'Ill,http://applis.cts-strasbourg.fr/CTS_FicheHorairev3/ResultatsFiches.aspx?arret=99A
CIIDO_02,99B,48.61290148158651,7.773271054029465,Cité de l'Ill,http://applis.cts-strasbourg.fr/CTS_FicheHorairev3/ResultatsFiches.aspx?arret=99B
BOECK_02,57B,48.597972614490466,7.778252797977871,Robertsau Boecklin,http://applis.cts-strasbourg.fr/CTS_FicheHorairev3/ResultatsFiches.aspx?arret=57B
HAMAI_04,259D,48.59328855213274,7.698831247942394,Hautepierre Maillon,http://applis.cts-strasbourg.fr/CTS_FicheHorairev3/ResultatsFiches.aspx?arret=259D
HOGAR_01,274D,48.628006455412915,7.758311915056652,Hoenheim Gare,http://applis.cts-strasbourg.fr/CTS_FicheHorairev3/ResultatsFiches.aspx?arret=274D
HOGAR_05,276A,48.62798784108316,7.7586297568249165,Hoenheim Gare,http://applis.cts-strasbourg.fr/CTS_FicheHorairev3/ResultatsFiches.aspx?arret=276A
LHPPA_F1,341B,48.58521437706161,7.74342967833752,Les Halles - Pont de Paris,http://applis.cts-strasbourg.fr/CTS_FicheHorairev3/ResultatsFiches.aspx?arret=341B
LIGAR_04,346C,48.4907070161315,7.674968975441402,Lipsheim Gare,http://applis.cts-strasbourg.fr/CTS_FicheHorairev3/ResultatsFiches.aspx?arret=346C
REPUB_03,527F,48.5865926954632,7.753808945417404,République,http://applis.cts-strasbourg.fr/CTS_FicheHorairev3/ResultatsFiches.aspx?arret=527F
ROCHA_F1,536A,48.62353527344985,7.786520707266277,Robertsau Chasseurs,http://applis.cts-strasbourg.fr/CTS_FicheHorairev3/ResultatsFiches.aspx?arret=536A
ROREU_01,546C,48.54610797317173,7.766901689426845,Neuhof Rodolphe Reuss,http://applis.cts-strasbourg.fr/CTS_FicheHorairev3/ResultatsFiches.aspx?arret=546C
WOLSD_02,671B,48.578905474656544,7.6665951188969075,Wolfisheim Stade,http://applis.cts-strasbourg.fr/CTS_FicheHorairev3/ResultatsFiches.aspx?arret=671B
WATTW_F1,660B,48.561331150742035,7.786043274061626,Wattwiller,http://applis.cts-strasbourg.fr/CTS_FicheHorairev3/ResultatsFiches.aspx?arret=660B
WATTW_f1,660,48.561182039257154,7.785881000416225,Wattwiller,http://applis.cts-strasbourg.fr/CTS_FicheHorairev3/ResultatsFiches.aspx?arret=660
COLIL_01,125A,48.500296322036874,7.691330450432247,Colonel Lilly,http://applis.cts-strasbourg.fr/CTS_FicheHorairev3/ResultatsFiches.aspx?arret=125A
ARTIS_01,34A,48.49806046068255,7.689625906603283,Artisanat,http://applis.cts-strasbourg.fr/CTS_FicheHorairev3/ResultatsFiches.aspx?arret=34A
BAGGE_08,38G,48.54492802783703,7.737035292046016,Baggersee,http://applis.cts-strasbourg.fr/CTS_FicheHorairev3/ResultatsFiches.aspx?arret=38G
GECEN_01,236A,48.52482211405886,7.6899652060436665,Geispolsheim Centre Commercial,http://applis.cts-strasbourg.fr/CTS_FicheHorairev3/ResultatsFiches.aspx?arret=236A
JEJAU_04,298A,48.56716745494881,7.772022026436275,Jean Jaurès,http://applis.cts-strasbourg.fr/CTS_FicheHorairev3/ResultatsFiches.aspx?arret=298A
VILVE_01,711A,48.59469281627876,7.725937440991402,Villa Vénitienne,http://applis.cts-strasbourg.fr/CTS_FicheHorairev3/ResultatsFiches.aspx?arret=711A
VILVE_02,711B,48.59469769467678,7.725919336080551,Villa Vénitienne,http://applis.cts-strasbourg.fr/CTS_FicheHorairev3/ResultatsFiches.aspx?arret=711B
STFLO_06,710B,48.59373797166999,7.72101491689682,Eglise Saint Florent,http://applis.cts-strasbourg.fr/CTS_FicheHorairev3/ResultatsFiches.aspx?arret=710B
STFLO_07,710A,48.593572989723434,7.721291184425354,Eglise Saint Florent,http://applis.cts-strasbourg.fr/CTS_FicheHorairev3/ResultatsFiches.aspx?arret=710A
MAZEL_03,709A,48.59527555976416,7.7183327078819275,Mathieu Zell,http://applis.cts-strasbourg.fr/CTS_FicheHorairev3/ResultatsFiches.aspx?arret=709A
MAZEL_04,709B,48.595262255193354,7.718333378434181,Mathieu Zell,http://applis.cts-strasbourg.fr/CTS_FicheHorairev3/ResultatsFiches.aspx?arret=709B